SALE TYPE,SOLD DATE,PROPERTY TYPE,ADDRESS,CITY,STATE OR PROVINCE,ZIP OR POSTAL CODE,PRICE,BEDS,BATHS,LOCATION,SQUARE FEET,LOT SIZE,YEAR BUILT,DAYS ON MARKET,$/SQUARE FEET,HOA/MONTH,STATUS,NEXT OPEN HOUSE START TIME,NEXT OPEN HOUSE END TIME,URL (SEE https://www.redfin.com/buy-a-home/comparative-market-analysis FOR INFO ON PRICING),SOURCE,MLS#,FAVORITE,INTERESTED,LATITUDE,LONGITUDE
PAST SALE,May-4-2022,Townhouse,20 E Fort Ave,Baltimore,MD,21230,449900,3,3.5,Ward 23,1692,1045,2014,,266,25,Sold,,,https://www.redfin.com/MD/Baltimore/20-E-Fort-Ave-21230/home/9890719,BRIGHT MLS,MDBA2031360,N,Y,39.2727637,-76.6130618
PAST SALE,May-12-2021,Townhouse,3444 Woodberry Ave,Baltimore,MD,21211,750000,3,3.5,Ward 13,2776,3703,2011,,270,225,Sold,,,https://www.redfin.com/MD/Baltimore/3444-Woodberry-Ave-21211/home/12322550,BRIGHT MLS,MDBA544666,N,Y,39.330664,-76.6478366
PAST SALE,April-15-2022,Single Family Residential,3938 Lowndes Ave,Baltimore,MD,21218,323000,3,2.5,Ward 9,1600,5400,2016,,202,,Sold,,,https://www.redfin.com/MD/Baltimore/3938-Lowndes-Ave-21218/home/10804564,BRIGHT MLS,MDBA2035156,N,Y,39.3371975,-76.6055052
PAST SALE,September-17-2020,Townhouse,428 E Oliver St,Baltimore,MD,21202,264900,3,2.5,Ward 12,1816,,2012,,146,,Sold,,,https://www.redfin.com/MD/Baltimore/428-E-Oliver-St-21202/home/40630204,BRIGHT MLS,MDBA510774,N,Y,39.3070107,-76.6097377
PAST SALE,,Condo/Co-op,5189 Wyndholme Cir,Baltimore,MD,21229,250000,,,,,,2013,,,,,,,https://www.redfin.com/MD/Baltimore/5189-Wyndholme-Cir-21229/home/64338105,,,N,Y,39.2789298,-76.7034547
PAST SALE,,Townhouse,1713 Mt Pleasant Ave,Baltimore,MD,21231,338000,,2.5,,2524,740,2011,,134,,,,,https://www.redfin.com/MD/Baltimore/1713-Mt-Pleasant-Ave-21231/home/11892313,,,N,Y,39.2897114,-76.5928949
PAST SALE,,Single Family Residential,5001 Ashman's Hope,Baltimore,MD,21207,380000,,2.5,,2016,5009,2016,,188,,,,,https://www.redfin.com/MD/Baltimore/5001-Ashman-s-Hope-21207/home/17036383,,,N,Y,39.3041881,-76.7059404
PAST SALE,September-12-2020,Townhouse,204 Newkirk St,Baltimore,MD,21224,364200,3,4.0,Ward 26,2075,1088,2020,,176,44,Sold,,,https://www.redfin.com/MD/Baltimore/204-S-Newkirk-St-21224/home/147011251,BRIGHT MLS,MDBA506668,N,Y,39.2899784,-76.5569837
PAST SALE,,Townhouse,510 S Chapel St,Baltimore,MD,21231,462000,,3.5,,2480,1260,2011,,186,,,,,https://www.redfin.com/MD/Baltimore/510-S-Chapel-St-21231/home/12261710,,,N,Y,39.285295,-76.5895144
PAST SALE,,Townhouse,1500 S Charles St,Baltimore,MD,21230,480000,,3.0,,2044,6020,2015,,235,,,,,https://www.redfin.com/MD/Baltimore/1500-S-Charles-St-21230/home/39538278,,,N,Y,39.2724013,-76.6143291
PAST SALE,December-14-2020,Townhouse,218 S Newkirk St,Baltimore,MD,21224,374915,3,4.0,Ward 26,2075,1088,2020,,181,44,Sold,,,https://www.redfin.com/MD/Baltimore/218-S-Newkirk-St-21224/home/147011244,BRIGHT MLS,MDBA511348,N,Y,39.2896678,-76.5569637
PAST SALE,June-26-2020,Townhouse,305 E Lanvale St,Baltimore,MD,21202,431775,3,2.5,Ward 12,2273,1120,,,190,,Sold,,,https://www.redfin.com/MD/Baltimore/305-E-Lanvale-St-21202/home/171943347,BRIGHT MLS,MDBA511504,N,Y,39.308723,-76.611675
PAST SALE,December-18-2020,Townhouse,525 Canton Ct,Baltimore,MD,21224,480000,3,3.5,Ward 26,2406,1786,2018,,200,,Sold,,,https://www.redfin.com/MD/Baltimore/525-Canton-Ct-21224/home/11892614,BRIGHT MLS,MDBA530280,N,Y,39.2860003,-76.5680828
PAST SALE,July-8-2020,Townhouse,4314 La Plata Ave,Baltimore,MD,21211,355000,3,2.5,Baltimore,1962,1500,2019,,181,60,Sold,,,https://www.redfin.com/MD/Baltimore/4314-La-Plata-Ave-21211/home/169881504,BRIGHT MLS,MDBA492152,N,Y,39.339511,-76.645618
PAST SALE,April-29-2022,Townhouse,1314 Jackson St,Baltimore,MD,21230,750000,3,4.0,Ward 24,2434,1300,2017,,308,210,Sold,,,https://www.redfin.com/MD/Baltimore/1314-Jackson-St-21230/home/11892444,BRIGHT MLS,MDBA2036852,N,Y,39.2750983,-76.6056036
PAST SALE,August-14-2020,Single Family Residential,307 E Lanvale St,Baltimore,MD,21202,469900,3,2.5,Ward 12,2273,1120,2020,,207,,Sold,,,https://www.redfin.com/MD/Baltimore/307-E-Lanvale-St-21202/home/171499453,BRIGHT MLS,MDBA508828,N,Y,39.308725,-76.611626
PAST SALE,September-30-2020,Townhouse,1020 N Durham St,Baltimore,MD,21205,394995,3,3.5,Baltimore,2244,1120,2020,,176,50,Sold,,,https://www.redfin.com/MD/Baltimore/1020-N-Durham-St-21205/home/169880891,BRIGHT MLS,MDBA515748,N,Y,39.3023046,-76.591977
PAST SALE,October-9-2020,Townhouse,1803 E Chase St,Baltimore,MD,21205,394990,3,3.5,Baltimore,2229,1120,2020,,177,50,Sold,,,https://www.redfin.com/MD/Baltimore/1803-E-Chase-St-21213/home/169881299,BRIGHT MLS,MDBA510216,N,Y,39.3031906,-76.5923501
PAST SALE,July-17-2020,Townhouse,1801 E Chase St,Baltimore,MD,21205,431000,3,3.5,Baltimore,2247,1120,2020,,192,50,Sold,,,https://www.redfin.com/MD/Baltimore/1801-E-Chase-St-21213/home/170556855,BRIGHT MLS,MDBA502488,N,Y,39.303144,-76.592301
PAST SALE,May-11-2020,Townhouse,241 S Macon St,Baltimore,MD,21224,280000,3,3.5,OLDHAM CROSSING,1600,1088,2020,,175,44,Sold,,,https://www.redfin.com/MD/Baltimore/241-S-Macon-St-21224/home/147010881,BRIGHT MLS,MDBA497616,N,Y,39.2891568,-76.5572162
PAST SALE,,Townhouse,1739 Aliceanna St,Baltimore,MD,21231,775000,,3.5,,3099,1220,2011,,250,,,,,https://www.redfin.com/MD/Baltimore/1739-Aliceanna-St-21231/home/50276732,,,N,Y,39.2834014,-76.5916831
PAST SALE,,Townhouse,1410 Lowman St,Baltimore,MD,21230,510500,,2.5,,2280,1612,2013,,224,,,,,https://www.redfin.com/MD/Baltimore/1410-Lowman-St-21230/home/11892516,,,N,Y,39.2707649,-76.5952699
PAST SALE,February-7-2022,Single Family Residential,311 Frankle St,Brooklyn,MD,21225,302000,3,2.5,CURTIS HEIGHTS,,1500,2011,,,,Sold,,,https://www.redfin.com/MD/Baltimore/311-Frankle-St-21225/home/11053658,BRIGHT MLS,MDAA2017146,N,Y,39.2322718,-76.6090977
PAST SALE,,Townhouse,1021 McDonogh St,Baltimore,MD,21205,355000,3,3.5,,2026,1394,2016,,175,,,,,https://www.redfin.com/MD/Baltimore/1021-McDonogh-St-21205/home/10768696,,,N,Y,39.3028589,-76.593341
PAST SALE,April-29-2022,Townhouse,1730 E Eager St,Baltimore,MD,21205,357500,3,3.5,Ward 7,2026,1000,2017,,176,50,Sold,,,https://www.redfin.com/MD/Baltimore/1730-E-Eager-St-21205/home/10768671,BRIGHT MLS,MDBA2037144,N,Y,39.3020409,-76.5927246
PAST SALE,,Townhouse,4611 Foster Ave,Baltimore,MD,21224,366000,,2.5,,1696,1089,2013,,216,,,,,https://www.redfin.com/MD/Baltimore/4611-Foster-Ave-21224/home/50276719,,,N,Y,39.2848325,-76.5566808
PAST SALE,January-26-2022,Townhouse,4008 Harmony Ct,Baltimore,MD,21224,561975,3,3.5,Ward 26,,1002,2021,,,150,Sold,,,https://www.redfin.com/MD/Baltimore/4008-Harmony-Ct-21224/home/171245440,BRIGHT MLS,MDBA542878,N,Y,39.282314,-76.562371
PAST SALE,March-25-2022,Townhouse,580 Baker St,Baltimore,MD,21217,172500,3,2.5,Ward 14,,708,2012,,,,Sold,,,https://www.redfin.com/MD/Baltimore/580-Baker-St-21217/home/45424955,BRIGHT MLS,MDBA2026404,N,Y,39.3085515,-76.6402552
PAST SALE,September-10-2021,Townhouse,927 S Conkling St,Baltimore,MD,21224,610000,3,3.5,Ward 26,2438,871,2011,,250,,Sold,,,https://www.redfin.com/MD/Baltimore/927-S-Conkling-St-21224/home/12055720,BRIGHT MLS,MDBA550484,N,Y,39.2818644,-76.5665809
PAST SALE,October-2-2020,Townhouse,602 Dean St,Baltimore,MD,21224,499000,3,4.0,CANTON,2400,,2020,,208,70,Sold,,,https://www.redfin.com/MD/Baltimore/602-S-Dean-St-21224/home/145120272,BRIGHT MLS,MDBA521700,N,Y,39.2852109,-76.5667199
PAST SALE,,Townhouse,756 S Macon St,Baltimore,MD,21224,325000,,2.5,,1568,1089,2014,,207,,,,,https://www.redfin.com/MD/Baltimore/756-S-Macon-St-21224/home/57391506,,,N,Y,39.2843739,-76.5572525
PAST SALE,February-11-2022,Single Family Residential,5801 Carter Ave,Baltimore,MD,21214,355000,3,2.5,Ward 27,1750,8712,2021,,203,,Sold,,,https://www.redfin.com/MD/Baltimore/5801-Carter-Ave-21214/home/167699359,BRIGHT MLS,MDBA2004716,N,Y,39.3505595,-76.5517252
PAST SALE,March-23-2021,Townhouse,1522 Beason St,Baltimore,MD,21230,599900,3,2.5,Ward 24,1830,871,2018,,328,80,Sold,,,https://www.redfin.com/MD/Baltimore/1522-Beason-St-21230/home/145644436,BRIGHT MLS,MDBA538828,N,Y,39.2713495,-76.5912831
PAST SALE,February-26-2021,Townhouse,535 Canton Ct,Baltimore,MD,21224,495000,3,3.5,Ward 26,2406,1002,2017,,206,21,Sold,,,https://www.redfin.com/MD/Baltimore/535-Canton-Ct-21224/home/11892619,BRIGHT MLS,MDBA535334,N,Y,39.285774,-76.5680962
PAST SALE,June-30-2020,Townhouse,303 E Lanvale St,Baltimore,MD,21202,442100,3,3.5,GREENMOUNT WEST STATION NORTH,2273,1120,2020,,195,,Sold,,,https://www.redfin.com/MD/Baltimore/303-E-Lanvale-St-21202/home/167027581,BRIGHT MLS,MDBA471198,N,Y,39.308721,-76.611725
PAST SALE,March-17-2021,Single Family Residential,3601 Woodbine Ave,Baltimore,MD,21207,260000,3,2.5,Ward 28,,6299,2020,,,,Sold,,,https://www.redfin.com/MD/Baltimore/3601-Woodbine-Ave-21207/home/11214871,BRIGHT MLS,MDBA500466,N,Y,39.332406,-76.6965252
PAST SALE,June-4-2021,Townhouse,5338 Wyndholme Cir #7,Baltimore,MD,21229,212250,3,2.0,Ward 25,1400,,2013,,152,325,Sold,,,https://www.redfin.com/MD/Baltimore/5338-Wyndholme-Cir-21229/unit-7/home/59254345,BRIGHT MLS,MDBA536918,N,Y,39.2780749,-76.7041364
PAST SALE,September-3-2021,Townhouse,724 S Macon St,Baltimore,MD,21224,319000,3,3.0,Ward 26,1376,1089,2013,,232,64,Sold,,,https://www.redfin.com/MD/Baltimore/724-S-Macon-St-21224/home/59254387,BRIGHT MLS,MDBA2001204,N,Y,39.2847139,-76.5573509
PAST SALE,September-30-2021,Townhouse,888 S Macon St,Baltimore,MD,21224,355000,3,3.5,Ward 26,2048,1306,2016,,173,64,Sold,,,https://www.redfin.com/MD/Baltimore/888-S-Macon-St-21224/home/101754942,BRIGHT MLS,MDBA2006068,N,Y,39.2830375,-76.5574986
PAST SALE,May-5-2021,Townhouse,911 Grundy St,Baltimore,MD,21224,710630,3,3.5,BREWERS HILL,2227,1020,2020,,319,110,Sold,,,https://www.redfin.com/MD/Baltimore/911-Grundy-St-21224/home/171237071,BRIGHT MLS,MDBA506030,N,Y,39.2826033,-76.5629151
PAST SALE,,Townhouse,1216 Berry St,Baltimore,MD,21211,415000,,3.0,,2040,1263,2016,,203,,,,,https://www.redfin.com/MD/Baltimore/1216-Berry-St-21211/home/102325126,,,N,Y,39.3318528,-76.6363643
PAST SALE,,Townhouse,1332 Lowman St,Baltimore,MD,21230,530000,,2.5,,2280,1612,2013,,232,,,,,https://www.redfin.com/MD/Baltimore/1332-Lowman-St-21230/home/11892745,,,N,Y,39.2713544,-76.5949427
PAST SALE,April-19-2021,Townhouse,1324 Benjamin St,Baltimore,MD,21230,575000,3,3.0,Ward 24,2193,958,2015,,262,147,Sold,,,https://www.redfin.com/MD/Baltimore/1324-Benjamin-St-21230/home/56449459,BRIGHT MLS,MDBA541732,N,Y,39.268937,-76.5885777
PAST SALE,June-22-2021,Townhouse,589 Baker St,Baltimore,MD,21217,202999,3,2.5,SANDTOWN,1296,2178,2019,,157,,Sold,,,https://www.redfin.com/MD/Baltimore/589-Baker-St-21217/home/10876937,BRIGHT MLS,MDBA532170,N,Y,39.3083923,-76.63998
PAST SALE,,Condo/Co-op,573 Wyndholme Way,Baltimore,MD,21229,250000,,,,1568,,2011,,159,,,,,https://www.redfin.com/MD/Baltimore/573-Wyndholme-Way-21229/home/40038307,,,N,Y,39.2775691,-76.7030345
PAST SALE,,Townhouse,3864 Quarry Ave,Baltimore,MD,21211,270000,,3.0,,1736,996,2014,,156,,,,,https://www.redfin.com/MD/Baltimore/3864-Quarry-Ave-21211/home/10874519,,,N,Y,39.3352319,-76.6378192
PAST SALE,,Townhouse,6713 Fairford Ln,Baltimore,MD,21209,625000,,3.5,,3217,3683,2017,,194,,,,,https://www.redfin.com/MD/Baltimore/6713-Fairford-Ln-21209/home/9708578,,,N,Y,39.3898023,-76.6617786
PAST SALE,,Townhouse,1205 Clarkson St,Baltimore,MD,21230,400000,,3.0,,1696,784,2021,,236,,,,,https://www.redfin.com/MD/Baltimore/1205-Clarkson-St-21230/home/144207825,,,N,Y,39.2753632,-76.616002
PAST SALE,December-10-2021,Townhouse,5453 Bristol Green Way,Baltimore,MD,21229,340000,3,2.5,BRISTOL GREEN,2180,1720,2017,,156,55,Sold,,,https://www.redfin.com/MD/Baltimore/5453-Bristol-Grn-Way-21229/home/52925998,BRIGHT MLS,MDBC2011964,N,Y,39.2881383,-76.7204711
PAST SALE,March-19-2021,Townhouse,591 Baker St,Baltimore,MD,21217,202999,3,2.5,Ward 14,1296,2178,2019,,157,,Sold,,,https://www.redfin.com/MD/Baltimore/591-Baker-St-21217/home/25800802,BRIGHT MLS,MDBA532168,N,Y,39.3083692,-76.6400503
PAST SALE,March-25-2022,Townhouse,1521 Cuba St,Baltimore,MD,21230,655000,3,3.5,Ward 24,1830,,2018,,358,80,Sold,,,https://www.redfin.com/MD/Baltimore/1521-Cuba-St-21230/home/145140478,BRIGHT MLS,MDBA2030740,N,Y,39.2717726,-76.5912054
PAST SALE,,Townhouse,4662 Hudson St,Baltimore,MD,21224,370000,,3.5,,2072,1133,2015,,179,,,,,https://www.redfin.com/MD/Baltimore/4662-Hudson-St-21224/home/85691299,,,N,Y,39.282994,-76.5562031
PAST SALE,September-18-2020,Townhouse,240 S Newkirk St,Baltimore,MD,21224,324990,3,3.5,OLDHAM CROSSING,1600,1088,2020,,203,44,Sold,,,https://www.redfin.com/MD/Baltimore/240-S-Newkirk-St-21224/home/147011233,BRIGHT MLS,MDBA509602,N,Y,39.2891681,-76.5569315
PAST SALE,September-25-2020,Townhouse,214 S Newkirk St,Baltimore,MD,21224,354000,3,3.5,Ward 26,2012,1088,2020,,176,44,Sold,,,https://www.redfin.com/MD/Baltimore/214-S-Newkirk-St-21224/home/147011246,BRIGHT MLS,MDBA513300,N,Y,39.2897547,-76.5569693
PAST SALE,September-17-2020,Townhouse,208 Newkirk St,Baltimore,MD,21224,361745,3,3.5,Ward 26,2075,1088,2020,,174,44,Sold,,,https://www.redfin.com/MD/Baltimore/208-S-Newkirk-St-21224/home/147011249,BRIGHT MLS,MDBA508328,N,Y,39.2898899,-76.556978
PAST SALE,August-20-2020,Townhouse,4001 Harmony Ct,Baltimore,MD,21224,639190,3,3.0,BREWERS HILL,2227,1020,2020,,287,110,Sold,,,https://www.redfin.com/MD/Baltimore/4001-Harmony-Ct-21224/home/171236767,BRIGHT MLS,MDBA505986,N,Y,39.2820708,-76.5626421
PAST SALE,June-25-2020,Townhouse,1016 N Durham St,Baltimore,MD,21205,397490,3,3.5,Baltimore,2229,1120,2020,,178,50,Sold,,,https://www.redfin.com/MD/Baltimore/1016-N-Durham-St-21205/home/169730089,BRIGHT MLS,MDBA503490,N,Y,39.3022112,-76.5919715
PAST SALE,,Townhouse,4362 Old Frederick Rd,Baltimore,MD,21229,241750,,2.5,,1424,1002,2015,,170,,,,,https://www.redfin.com/MD/Baltimore/4362-Old-Frederick-Rd-21229/home/108434112,,,N,Y,39.2888203,-76.6894981
PAST SALE,January-15-2021,Townhouse,526 E 21st St,Baltimore,MD,21218,322525,3,2.5,Ward 9,2190,1260,,,147,,Sold,,,https://www.redfin.com/MD/Baltimore/526-E-21st-St-21218/home/166767130,BRIGHT MLS,MDBA513576,N,Y,39.313763,-76.608688
PAST SALE,January-20-2021,Townhouse,593 Baker St,Baltimore,MD,21217,202999,3,2.5,BAKERS VIEW,1296,2178,2019,,157,,Sold,,,https://www.redfin.com/MD/Baltimore/593-Baker-St-21217/home/10876931,BRIGHT MLS,MDBA489710,N,Y,39.3083544,-76.6400483
PAST SALE,September-17-2020,Townhouse,4325 Medfield Ave,Baltimore,MD,21211,355000,3,2.5,ROLAND HEIGHTS,1763,1500,2020,,201,60,Sold,,,https://www.redfin.com/MD/Baltimore/4325-Medfield-Ave-21211/home/171243835,BRIGHT MLS,MDBA502472,N,Y,39.339839,-76.645595
PAST SALE,April-19-2022,Single Family Residential,3308 Harmony Ct,Baltimore,MD,21224,580000,3,4.0,Ward 26,2698,1383,2014,,215,,Sold,,,https://www.redfin.com/MD/Baltimore/3308-Harmony-Ct-21224/home/28546603,BRIGHT MLS,MDBA2030976,N,Y,39.2820706,-76.5692663
PAST SALE,January-28-2022,Townhouse,4639 Dillon St,Baltimore,MD,21224,330000,3,2.5,Ward 26,1743,653,2012,,189,38,Sold,,,https://www.redfin.com/MD/Baltimore/4639-Dillon-St-21224/home/11892648,BRIGHT MLS,MDBA2019904,N,Y,39.2817928,-76.5560638
PAST SALE,,Townhouse,4654 Hudson St,Baltimore,MD,21224,375000,3,2.5,,1917,1133,2015,,196,,,,,https://www.redfin.com/MD/Baltimore/4654-Hudson-St-21224/home/57005140,,,N,Y,39.2829574,-76.5565042
PAST SALE,,Townhouse,3414 Gunther Way,Baltimore,MD,21224,470000,,3.5,,1893,1133,2012,,248,,,,,https://www.redfin.com/MD/Baltimore/3414-Gunther-Way-21224/home/64338069,,,N,Y,39.2810804,-76.5682956
PAST SALE,April-19-2022,Townhouse,4607 Hudson St,Baltimore,MD,21224,350000,3,2.0,Ward 26,1504,1306,2014,,233,22,Sold,,,https://www.redfin.com/MD/Baltimore/4607-Hudson-St-21224/home/85691265,BRIGHT MLS,MDBA2029984,N,Y,39.2827112,-76.557006
PAST SALE,,Townhouse,4633 Hudson St,Baltimore,MD,21224,293000,,2.5,,1524,1002,2014,,192,,,,,https://www.redfin.com/MD/Baltimore/4633-Hudson-St-21224/home/85691277,,,N,Y,39.28275,-76.55629
PAST SALE,September-30-2020,Townhouse,4331 Medfield Ave,Baltimore,MD,21211,359000,3,2.5,ROLAND HEIGHTS,1763,1500,2020,,204,60,Sold,,,https://www.redfin.com/MD/Baltimore/4331-Medfield-Ave-21211/home/171243838,BRIGHT MLS,MDBA502450,N,Y,39.340006,-76.645701
PAST SALE,December-13-2021,Townhouse,890 S Macon St,Baltimore,MD,21224,365000,3,3.5,Ward 26,2060,871,2016,,177,64,Sold,,,https://www.redfin.com/MD/Baltimore/890-S-Macon-St-21224/home/108433865,BRIGHT MLS,MDBA2015274,N,Y,39.2830342,-76.5575535
PAST SALE,February-18-2022,Townhouse,1522 Marshall St,Baltimore,MD,21230,495000,3,3.5,Ward 23,1696,915,2015,,292,,Sold,,,https://www.redfin.com/MD/Baltimore/1522-Marshall-St-21230/home/64338183,BRIGHT MLS,MDBA2029304,N,Y,39.2719172,-76.6125589
PAST SALE,February-4-2022,Single Family Residential,3605 Buena Vis,Baltimore,MD,21211,427500,3,3.5,Ward 13,2100,3600,2015,,204,,Sold,,,https://www.redfin.com/MD/Baltimore/3605-Buena-Vista-Ave-21211/home/10860758,BRIGHT MLS,MDBA2001079,N,Y,39.3306544,-76.6391165
PAST SALE,January-7-2022,Townhouse,4004 Harmony Ct,Baltimore,MD,21224,626225,3,3.5,Ward 26,,1002,2021,,,150,Sold,,,https://www.redfin.com/MD/Baltimore/4004-Harmony-Ct-21224/home/171245438,BRIGHT MLS,MDBA542868,N,Y,39.282308,-76.562525
PAST SALE,November-9-2020,Townhouse,4329 Medfield Ave,Baltimore,MD,21211,334990,3,2.5,Baltimore,1763,1500,2020,,190,60,Sold,,,https://www.redfin.com/MD/Baltimore/4329-Medfield-Ave-21211/home/171243837,BRIGHT MLS,MDBA502460,N,Y,39.339941,-76.645663
PAST SALE,November-23-2021,Townhouse,737 S Macon St,Baltimore,MD,21224,320000,3,3.0,Ward 26,1376,1089,2013,,233,64,Sold,,,https://www.redfin.com/MD/Baltimore/737-S-Macon-St-21224/home/50276670,BRIGHT MLS,MDBA2014178,N,Y,39.2843851,-76.5564853
PAST SALE,,Townhouse,732 S Macon St,Baltimore,MD,21224,290000,,2.5,,1568,915,2013,,185,,,,,https://www.redfin.com/MD/Baltimore/732-S-Macon-St-21224/home/59254385,,,N,Y,39.2846314,-76.557346
PAST SALE,,Townhouse,4509 Foster Ave,Baltimore,MD,21224,285000,,2.5,,1376,1263,2013,,207,,,,,https://www.redfin.com/MD/Baltimore/4509-Foster-Ave-21224/home/59254391,,,N,Y,39.2848337,-76.5581058
PAST SALE,,Townhouse,4601 Fait Ave,Baltimore,MD,21224,375000,,3.5,,1872,1394,2015,,200,,,,,https://www.redfin.com/MD/Baltimore/4601-Fait-Ave-21224/home/63482050,,,N,Y,39.2838294,-76.5568947
PAST SALE,,Townhouse,4642 Hudson St,Baltimore,MD,21224,410000,,3.5,,2112,1307,2015,,194,,,,,https://www.redfin.com/MD/Baltimore/4642-Hudson-St-21224/home/70864138,,,N,Y,39.283506,-76.556276
PAST SALE,,Townhouse,815 S Macon St,Baltimore,MD,21224,333000,,2.5,,1524,1002,2015,,219,,,,,https://www.redfin.com/MD/Baltimore/815-S-Macon-St-21224/home/85691271,,,N,Y,39.2835122,-76.5568413
PAST SALE,November-12-2021,Townhouse,928 S Macon St,Baltimore,MD,21224,315000,3,2.0,Ward 26,1856,871,2015,,170,64,Sold,,,https://www.redfin.com/MD/Baltimore/928-S-Macon-St-21224/home/108433931,BRIGHT MLS,MDBA2006186,N,Y,39.2824518,-76.5577785
PAST SALE,November-22-2021,Townhouse,128 Oldham St,Baltimore,MD,21224,325000,3,3.5,Ward 26,1600,1306,2017,,203,44,Sold,,,https://www.redfin.com/MD/Baltimore/128-Oldham-St-21224/home/143020179,BRIGHT MLS,MDBA2010216,N,Y,39.2909292,-76.5563585
PAST SALE,November-24-2021,Townhouse,3026 Elliott St,Baltimore,MD,21224,690000,3,4.0,Ward 1,2480,1200,2021,,278,,Sold,,,https://www.redfin.com/MD/Baltimore/3026-Elliott-St-21224/home/10733741,BRIGHT MLS,MDBA541310,N,Y,39.2794827,-76.5729767
PAST SALE,October-28-2021,Townhouse,537 Canton Ct,Baltimore,MD,21224,535000,3,3.5,Ward 26,2406,1002,2018,,222,21,Sold,,,https://www.redfin.com/MD/Baltimore/537-Canton-Ct-21224/home/11892620,BRIGHT MLS,MDBA2006660,N,Y,39.285738,-76.568187
PAST SALE,June-26-2020,Townhouse,1003 N Rutland Ave,Baltimore,MD,21205,330000,3,2.5,Baltimore,1741,1120,2020,,190,50,Sold,,,https://www.redfin.com/MD/Baltimore/1003-Rutland-Ave-21213/home/167182332,BRIGHT MLS,MDBA504394,N,Y,39.3023372,-76.5923092
PAST SALE,July-15-2021,Townhouse,23 Birckhead St,Baltimore,MD,21230,450000,3,3.5,Ward 23,1985,1133,2013,,227,25,Sold,,,https://www.redfin.com/MD/Baltimore/23-Birckhead-St-21230/home/59254401,BRIGHT MLS,MDBA549780,N,Y,39.2730094,-76.6129347
PAST SALE,April-8-2021,Townhouse,4614 Dillon Pl,Baltimore,MD,21224,345000,3,3.5,Ward 26,2032,871,2015,,170,33,Sold,,,https://www.redfin.com/MD/Baltimore/4614-Dillon-Pl-21224/home/28546609,BRIGHT MLS,MDBA541572,N,Y,39.282418,-76.556789
PAST SALE,April-29-2022,Townhouse,131 S Newkirk St,Baltimore,MD,21224,365000,3,3.5,Ward 26,1950,1306,2018,,187,52,Sold,,,https://www.redfin.com/MD/Baltimore/131-S-Newkirk-St-21224/home/145046929,BRIGHT MLS,MDBA2035050,N,Y,39.2908346,-76.5566689
PAST SALE,April-7-2022,Townhouse,4330 Laplata Ave,Baltimore,MD,21211,455555,3,2.5,Ward 13,2300,1500,2019,,198,60,Sold,,,https://www.redfin.com/MD/Baltimore/4330-La-Plata-Ave-21211/home/167021273,BRIGHT MLS,MDBA2035956,N,Y,39.339954,-76.645917
PAST SALE,October-22-2020,Townhouse,587 Baker St,Baltimore,MD,21217,202999,3,2.5,SANDTOWN,1296,2178,2019,,157,,Sold,,,https://www.redfin.com/MD/Baltimore/587-Baker-St-21217/home/169593835,BRIGHT MLS,MDBA489700,N,Y,39.3084481,-76.6399022
PAST SALE,,Townhouse,613 S Luzerne Ave,Baltimore,MD,21224,411200,,3.0,,1890,1263,2012,,218,,,,,https://www.redfin.com/MD/Baltimore/613-S-Luzerne-Ave-21224/home/40012161,,,N,Y,39.2844938,-76.5797632
PAST SALE,February-16-2021,Townhouse,6310 Canter Way #11,Baltimore,MD,21212,550000,3,3.5,WOODBROOK,4032,,2010,,136,582,Sold,,,https://www.redfin.com/MD/Baltimore/6310-Canter-Way-21212/unit-11/home/40026735,BRIGHT MLS,MDBC484184,N,Y,39.380507,-76.626865
PAST SALE,,Townhouse,524 S Washington St,Baltimore,MD,21231,415000,,3.5,,2025,1215,2018,,205,,,,,https://www.redfin.com/MD/Baltimore/524-S-Washington-St-21231/home/110171417,,,N,Y,39.2850272,-76.5889275
PAST SALE,May-19-2020,Townhouse,4645 Dillon St,Baltimore,MD,21224,310000,3,3.5,Ward 26,1920,435,2012,,161,38,Sold,,,https://www.redfin.com/MD/Baltimore/4645-Dillon-St-21224/home/11892651,BRIGHT MLS,MDBA504224,N,Y,39.2818155,-76.5559162
PAST SALE,January-20-2021,Townhouse,229 S Newkirk St,Baltimore,MD,21224,347865,3,3.5,Ward 26,1760,1088,2020,,198,44,Sold,,,https://www.redfin.com/MD/Baltimore/229-S-Newkirk-St-21224/home/147011264,BRIGHT MLS,MDBA520092,N,Y,39.2893629,-76.5565221
PAST SALE,November-13-2020,Townhouse,203 S Newkirk St,Baltimore,MD,21224,316990,3,3.5,OLDHAM CROSSING,1600,1088,2020,,198,44,Sold,,,https://www.redfin.com/MD/Baltimore/203-S-Newkirk-St-21224/home/147011277,BRIGHT MLS,MDBA511360,N,Y,39.2900357,-76.5565665
PAST SALE,,Townhouse,1712 Mt Pleasant Ave,Baltimore,MD,21231,340000,,2.5,,2599,740,2010,,131,,,,,https://www.redfin.com/MD/Baltimore/1712-Mt-Pleasant-Ave-21231/home/11892305,,,N,Y,39.2899305,-76.5929565
PAST SALE,,Townhouse,4614 Fait Ave,Baltimore,MD,21224,275000,,2.0,,1600,1002,2012,,172,,,,,https://www.redfin.com/MD/Baltimore/4614-Fait-Ave-21224/home/50276701,,,N,Y,39.2840743,-76.5564752
PAST SALE,,Townhouse,4707 Beaufort Ave,Baltimore,MD,21215,163000,,,,,1710,,,,,,,,https://www.redfin.com/MD/Baltimore/4707-Beaufort-Ave-21215/home/11171874,,,N,Y,39.3434985,-76.6737227
PAST SALE,,Townhouse,130 S Ann St,Baltimore,MD,21231,565000,,3.0,,2474,1612,2013,,228,,,,,https://www.redfin.com/MD/Baltimore/130-S-Ann-St-21231/home/45439687,,,N,Y,39.2896532,-76.5918618
PAST SALE,,Townhouse,127 W Fort Ave,Baltimore,MD,21230,530000,,3.5,,2183,9931,2016,,243,,,,,https://www.redfin.com/MD/Baltimore/127-W-Fort-Ave-21230/home/11010928,,,N,Y,39.2724116,-76.6161778
PAST SALE,April-11-2022,Townhouse,1624 Rampart Mews,Baltimore,MD,21230,600000,3,3.5,Ward 24,2204,915,2015,,272,147,Sold,,,https://www.redfin.com/MD/Baltimore/1624-Rampart-Mews-21230/home/64338170,BRIGHT MLS,MDBA2037256,N,Y,39.2709106,-76.5889096
PAST SALE,,Single Family Residential,4100 Elderon Ave,Baltimore,MD,21215,259900,,3.5,,1892,4609,2017,,137,,,,,https://www.redfin.com/MD/Baltimore/4100-Elderon-Ave-21215/home/11213643,,,N,Y,39.3419696,-76.687222
PAST SALE,June-14-2021,Townhouse,4523 Maple Wood Dr,Baltimore,MD,21229,240000,3,2.0,Ward 28,1842,915,2017,,130,65,Sold,,,https://www.redfin.com/MD/Baltimore/4523-Maple-Wood-Dr-21229/home/145321601,BRIGHT MLS,MDBA543180,N,Y,39.2914554,-76.6918499
PAST SALE,December-20-2021,Townhouse,4511 Birchwood Dr,Baltimore,MD,21229,245000,3,3.0,Ward 28,1424,1176,2017,,172,73,Sold,,,https://www.redfin.com/MD/Baltimore/4511-Birchwood-Dr-21229/home/143429965,BRIGHT MLS,MDBA2010584,N,Y,39.2910462,-76.6905629
PAST SALE,,Single Family Residential,1026 Olive St,Baltimore,MD,21230,370000,,3.5,,1562,630,2016,,237,,,,,https://www.redfin.com/MD/Baltimore/1026-Olive-St-21230/home/11009113,,,N,Y,39.2771224,-76.6150851
PAST SALE,December-7-2020,Townhouse,221 S Newkirk St,Baltimore,MD,21224,343170,3,4.0,Ward 26,2075,1088,2020,,165,44,Sold,,,https://www.redfin.com/MD/Baltimore/221-S-Newkirk-St-21224/home/147011268,BRIGHT MLS,MDBA519366,N,Y,39.2895936,-76.5565378
PAST SALE,,Townhouse,1230 Towson St,Baltimore,MD,21230,699900,,3.5,,2051,958,2018,,341,,,,,https://www.redfin.com/MD/Baltimore/1230-Towson-St-21230/home/146387024,,,N,Y,39.2716631,-76.5908613
PAST SALE,,Townhouse,128 E Fort Ave,Baltimore,MD,21230,630000,,4.5,,2926,2240,2015,,215,,,,,https://www.redfin.com/MD/Baltimore/128-E-Fort-Ave-21230/home/109879111,,,N,Y,39.2728578,-76.6105808
PAST SALE,November-2-2020,Townhouse,1502 S Charles St,Baltimore,MD,21230,490000,3,3.0,Ward 23,2044,,2015,,240,,Sold,,,https://www.redfin.com/MD/Baltimore/1502-S-Charles-St-21230/home/104375487,BRIGHT MLS,MDBA523822,N,Y,39.2724596,-76.6143264
PAST SALE,February-26-2021,Townhouse,4328 Roland Heights Ave,Baltimore,MD,21211,346000,3,2.5,ROLAND HEIGHTS,1763,1500,2020,,196,60,Sold,,,https://www.redfin.com/MD/Baltimore/4328-Roland-Heights-Ave-21211/home/171243908,BRIGHT MLS,MDBA540328,N,Y,39.33967,-76.646465
PAST SALE,,Townhouse,2313 E Fairmount Ave,Baltimore,MD,21224,371000,3,3.0,,2171,1027,2015,,171,,,,,https://www.redfin.com/MD/Baltimore/2313-E-Fairmount-Ave-21224/home/10758855,,,N,Y,39.292819,-76.5839979
PAST SALE,February-10-2022,Townhouse,563 Wyndholme Way,Baltimore,MD,21229,270000,3,3.0,Ward 25,1394,,2011,,194,260,Sold,,,https://www.redfin.com/MD/Baltimore/563-Wyndholme-Way-21229/home/40038302,BRIGHT MLS,MDBA2022490,N,Y,39.2779332,-76.703277
PAST SALE,,Townhouse,6108 Danville Ave,Baltimore,MD,21224,283000,,2.5,,1920,3125,2013,,147,,,,,https://www.redfin.com/MD/Baltimore/6108-Danville-Ave-21224/home/11065697,,,N,Y,39.2748576,-76.5425575
PAST SALE,March-9-2022,Townhouse,4636 Dillon Pl,Baltimore,MD,21224,390000,3,3.5,Ward 26,2368,,2013,,165,38,Sold,,,https://www.redfin.com/MD/Baltimore/4636-Dillon-Pl-21224/home/11892676,BRIGHT MLS,MDBA2028456,N,Y,39.2824561,-76.5559543
PAST SALE,,Townhouse,4622 Dillon Pl,Baltimore,MD,21224,314999,,3.5,,2032,784,2015,,155,,,,,https://www.redfin.com/MD/Baltimore/4622-Dillon-Pl-21224/home/28546606,,,N,Y,39.2824775,-76.5565786
PAST SALE,April-8-2022,Townhouse,912 Fagley St S,Baltimore,MD,21224,590000,3,3.0,Ward 26,2325,1307,2015,,254,,Sold,,,https://www.redfin.com/MD/Baltimore/912-Fagley-St-21224/home/57241872,BRIGHT MLS,MDBA2012472,N,Y,39.282077,-76.5642482
PAST SALE,March-10-2022,Townhouse,4531 Foster Ave,Baltimore,MD,21224,340000,3,3.0,Ward 26,1868,915,2013,,182,64,Sold,,,https://www.redfin.com/MD/Baltimore/4531-Foster-Ave-21224/home/59254330,BRIGHT MLS,MDBA2019514,N,Y,39.2848626,-76.5573952
PAST SALE,January-14-2022,Townhouse,812 S Macon St,Baltimore,MD,21224,329000,3,3.5,Ward 26,1588,,2016,,207,64,Sold,,,https://www.redfin.com/MD/Baltimore/812-S-Macon-St-21224/home/108434539,BRIGHT MLS,MDBA2017558,N,Y,39.283506,-76.5573585
PAST SALE,,Townhouse,4705 Marlene Mews,Baltimore,MD,21224,340000,,3.0,,1600,1089,2019,,213,,,,,https://www.redfin.com/MD/Baltimore/4705-Marlene-Mews-21224/home/166135663,,,N,Y,39.2902835,-76.556556
PAST SALE,July-2-2021,Townhouse,23 S Bethel St,Baltimore,MD,21231,424000,3,3.5,Ward 3,,859,,,,120,Sold,,,https://www.redfin.com/MD/Baltimore/23-S-Bethel-St-21231/home/144207849,BRIGHT MLS,MDBA548002,N,Y,39.2906509,-76.594737
PAST SALE,October-18-2021,Townhouse,834 Oldham St,Baltimore,MD,21224,360000,3,3.0,Ward 26,1524,1742,2015,,236,75,Sold,,,https://www.redfin.com/MD/Baltimore/834-Oldham-St-21224/home/85691325,BRIGHT MLS,MDBA2010420,N,Y,39.2829789,-76.5557514
PAST SALE,,Townhouse,132 S Ann St,Baltimore,MD,21231,600000,,2.5,,2474,1612,2013,,243,,,,,https://www.redfin.com/MD/Baltimore/132-S-Ann-St-21231/home/45374759,,,N,Y,39.2896133,-76.5918618
PAST SALE,,Townhouse,3860 Quarry Ave,Baltimore,MD,21211,269900,,3.0,,1736,996,2014,,155,,,,,https://www.redfin.com/MD/Baltimore/3860-Quarry-Ave-21211/home/10874516,,,N,Y,39.3350765,-76.6377311
PAST SALE,November-8-2021,Townhouse,807 S Macon St,Baltimore,MD,21224,340000,3,3.0,Ward 26,1504,1306,2015,,226,64,Sold,,,https://www.redfin.com/MD/Baltimore/807-S-Macon-St-21224/home/85691313,BRIGHT MLS,MDBA2012542,N,Y,39.2836585,-76.5569463
PAST SALE,,Townhouse,1008 Rutland Ave,Baltimore,MD,21205,330000,,3.5,,2026,1176,2016,,163,,,,,https://www.redfin.com/MD/Baltimore/1008-Rutland-Ave-21205/home/10768745,,,N,Y,39.3024826,-76.5926131
PAST SALE,,Townhouse,6707 Fairford Ln,Baltimore,MD,21209,540000,,2.5,,2435,3579,2018,,222,,,,,https://www.redfin.com/MD/Baltimore/6707-Fairford-Ln-21209/home/9710896,,,N,Y,39.3894755,-76.6621519
PAST SALE,,Townhouse,1730 Lantern Mews,Baltimore,MD,21205,325000,,3.0,,1610,1002,2016,,202,,,,,https://www.redfin.com/MD/Baltimore/1730-Lantern-Mews-21205/home/10768787,,,N,Y,39.3026119,-76.5930004
PAST SALE,,Single Family Residential,5005 Ashman's Hope,Baltimore,MD,21207,375000,,2.5,,2772,6839,2015,,135,,,,,https://www.redfin.com/MD/Baltimore/5005-Ashman-s-Hope-21207/home/17036385,,,N,Y,39.3040705,-76.7063013
PAST SALE,January-22-2021,Townhouse,4502 Scarlet Oak Ln,Baltimore,MD,21229,235000,3,3.0,Ward 28,1408,871,2017,,167,78,Sold,,,https://www.redfin.com/MD/Baltimore/4502-Scarlet-Oak-Ln-21229/home/114028306,BRIGHT MLS,MDBA532702,N,Y,39.2909593,-76.6916695
PAST SALE,February-24-2022,Townhouse,1018 S Curley St,Baltimore,MD,21224,509900,3,3.5,Ward 1,1820,871,2013,,280,,Sold,,,https://www.redfin.com/MD/Baltimore/1018-S-Curley-St-21224/home/10735386,BRIGHT MLS,MDBA2009416,N,Y,39.2808582,-76.5749099
PAST SALE,,Condo/Co-op,5338 Wyndholme Cir #2,Baltimore,MD,21229,264500,,,,,,2013,,,,,,,https://www.redfin.com/MD/Baltimore/5338-Wyndholme-Cir-21229/unit-2/home/59254351,,,N,Y,39.2780749,-76.7041364
PAST SALE,November-19-2021,Townhouse,1311 W Old Cold Spring Ln,Baltimore,MD,21209,370000,3,2.5,Ward 27,1800,4216,2021,,206,,Sold,,,https://www.redfin.com/MD/Baltimore/1311-W-Old-Cold-Spring-Ln-21209/home/174585035,BRIGHT MLS,MDBA2006456,N,Y,39.343301,-76.641867
PAST SALE,March-15-2022,Townhouse,1220 Berry St,Baltimore,MD,21211,417500,3,3.5,Ward 13,2040,1307,2016,,205,155,Sold,,,https://www.redfin.com/MD/Baltimore/1220-Berry-St-21211/home/102833964,BRIGHT MLS,MDBA2023074,N,Y,39.3318443,-76.6364085
PAST SALE,March-11-2022,Townhouse,1310 Jackson St,Baltimore,MD,21230,702000,3,4.0,Ward 24,2444,2444,2017,,287,185,Sold,,,https://www.redfin.com/MD/Baltimore/1310-Jackson-St-21230/home/11892442,BRIGHT MLS,MDBA2011924,N,Y,39.2751434,-76.6056155
PAST SALE,,Townhouse,1207 Clarkson St,Baltimore,MD,21230,413000,,3.0,,1696,784,2021,,244,,,,,https://www.redfin.com/MD/Baltimore/1207-Clarkson-St-21230/home/144207826,,,N,Y,39.2755108,-76.6159289
PAST SALE,,Townhouse,1303 Belt St,Baltimore,MD,21230,690000,,4.0,,2600,1568,2016,,265,,,,,https://www.redfin.com/MD/Baltimore/1303-Belt-St-21230/home/11892446,,,N,Y,39.2751847,-76.6059904
PAST SALE,June-2-2020,Townhouse,2248 Brunt St,Baltimore,MD,21217,212900,3,2.5,SANDTOWN,,,2019,,,,Sold,,,https://www.redfin.com/MD/Baltimore/2248-Brunt-St-21217/home/11222065,BRIGHT MLS,MDBA491220,N,Y,39.308581,-76.639343
PAST SALE,,Townhouse,878 Washington Blvd,Baltimore,MD,21230,289900,,3.5,,2592,1800,2010,,112,,,,,https://www.redfin.com/MD/Baltimore/878-Washington-Blvd-21230/home/10996982,,,N,Y,39.2830721,-76.6307455
PAST SALE,April-21-2021,Townhouse,4318 Laplata Ave,Baltimore,MD,21211,369900,3,2.5,ROLAND HEIGHTS,1763,1500,2020,,210,60,Sold,,,https://www.redfin.com/MD/Baltimore/4318-La-Plata-Ave-21211/home/171243853,BRIGHT MLS,MDBA520120,N,Y,39.339626,-76.645696
PAST SALE,,Condo/Co-op,1020 Pointe Lndg #109,Baltimore,MD,21230,649000,,,,3169,,2011,,205,,,,,https://www.redfin.com/MD/Baltimore/1020-Pointe-Lndg-21230/unit-109/home/11892415,,,N,Y,39.2781841,-76.6060807
PAST SALE,,Townhouse,2317 E Fairmount Ave,Baltimore,MD,21224,425000,,3.0,,2171,1027,2015,,196,,,,,https://www.redfin.com/MD/Baltimore/2317-E-Fairmount-Ave-21224/home/10758863,,,N,Y,39.292822,-76.583903
PAST SALE,,Townhouse,1310 Benjamin St,Baltimore,MD,21230,550000,,3.0,,2204,958,2015,,250,,,,,https://www.redfin.com/MD/Baltimore/1310-Benjamin-St-21230/home/56701671,,,N,Y,39.2692594,-76.5882137
PAST SALE,June-15-2020,Townhouse,763 W Cross St,Baltimore,MD,21230,294000,3,5.0,Ward 21,2000,,2020,,147,,Sold,,,https://www.redfin.com/MD/Baltimore/763-W-Cross-St-21230/home/35635395,BRIGHT MLS,MDBA508218,N,Y,39.27953,-76.627878
PAST SALE,May-3-2022,Townhouse,4003 Harmony Ct,Baltimore,MD,21224,575000,3,3.5,Ward 26,2481,1002,2020,,232,150,Sold,,,https://www.redfin.com/MD/Baltimore/4003-Harmony-Ct-21224/home/171245442,BRIGHT MLS,MDBA2034416,N,Y,39.282053,-76.56258
PAST SALE,,Townhouse,818 S Macon St,Baltimore,MD,21224,325000,,2.5,,1568,915,2016,,207,,,,,https://www.redfin.com/MD/Baltimore/818-S-Macon-St-21224/home/108434546,,,N,Y,39.2835002,-76.5575239
PAST SALE,March-31-2022,Townhouse,3603 Fleet St,Baltimore,MD,21224,589900,3,3.5,Ward 26,2091,871,2018,,282,59,Sold,,,https://www.redfin.com/MD/Baltimore/3603-Fleet-St-21224/home/112842955,BRIGHT MLS,MDBA2022522,N,Y,39.2855196,-76.566729
PAST SALE,August-2-2021,Townhouse,44 S Poppleton St,Baltimore,MD,21201,250000,3,2.5,Ward 18,1632,1022,2012,,153,,Sold,,,https://www.redfin.com/MD/Baltimore/44-S-Poppleton-St-21201/home/10957530,BRIGHT MLS,MDBA550748,N,Y,39.287183,-76.632284
PAST SALE,,Townhouse,4629 Dillon St,Baltimore,MD,21224,339900,,3.5,,1743,871,2010,,195,,,,,https://www.redfin.com/MD/Baltimore/4629-Dillon-St-21224/home/11892645,,,N,Y,39.2817764,-76.5563754
PAST SALE,,Townhouse,4529 Fait Ave,Baltimore,MD,21224,339900,,2.5,,1568,1002,2016,,217,,,,,https://www.redfin.com/MD/Baltimore/4529-Fait-Ave-21224/home/109860633,,,N,Y,39.2837289,-76.5573098
PAST SALE,April-13-2021,Townhouse,3029 Dillon St,Baltimore,MD,21224,599000,3,3.5,Ward 1,3264,1089,2011,,184,,Sold,,,https://www.redfin.com/MD/Baltimore/3029-Dillon-St-21224/home/45424549,BRIGHT MLS,MDBA541948,N,Y,39.2811416,-76.5731604
PAST SALE,April-25-2022,Townhouse,1001 Mcdonogh St,Baltimore,MD,21205,355000,3,3.0,Ward 7,1610,1481,2016,,220,50,Sold,,,https://www.redfin.com/MD/Baltimore/1001-McDonogh-St-21205/home/10768680,BRIGHT MLS,MDBA2035900,N,Y,39.3022909,-76.5933669
PAST SALE,,Townhouse,539 Canton Ct,Baltimore,MD,21224,529900,,3.5,,2406,1045,2018,,220,,,,,https://www.redfin.com/MD/Baltimore/539-Canton-Ct-21224/home/11892621,,,N,Y,39.2856693,-76.5682055
PAST SALE,,Townhouse,1340 Lowman St,Baltimore,MD,21230,512000,,2.5,,2179,2526,2013,,235,,,,,https://www.redfin.com/MD/Baltimore/1340-Lowman-St-21230/home/11892510,,,N,Y,39.2711762,-76.5951232
PAST SALE,,Townhouse,1302 Decatur St,Baltimore,MD,21230,488000,,2.5,,2600,1394,2011,,188,,,,,https://www.redfin.com/MD/Baltimore/1302-Decatur-St-21230/home/11892458,,,N,Y,39.2719335,-76.5939043
PAST SALE,February-25-2022,Townhouse,1737 Aliceanna St,Baltimore,MD,21231,835000,3,3.5,Ward 2,3099,,2011,,269,,Sold,,,https://www.redfin.com/MD/Baltimore/1737-Aliceanna-St-21231/home/40501239,BRIGHT MLS,MDBA2019176,N,Y,39.283399,-76.5917395
PAST SALE,March-30-2022,Townhouse,2319 E Fairmount Ave,Baltimore,MD,21224,435000,3,3.0,Ward 6,2171,1006,2015,,200,,Sold,,,https://www.redfin.com/MD/Baltimore/2319-E-Fairmount-Ave-21224/home/10758866,BRIGHT MLS,MDBA2032706,N,Y,39.292824,-76.583858
PAST SALE,January-29-2021,Townhouse,27 N Port St,Baltimore,MD,21224,413000,3,3.5,Ward 6,,828,2020,,,,Sold,,,https://www.redfin.com/MD/Baltimore/27-N-Port-St-21224/home/10759638,BRIGHT MLS,MDBA532230,N,Y,39.293855,-76.5826558
PAST SALE,March-28-2022,Townhouse,140 N Duncan St,Baltimore,MD,21231,345000,3,3.5,Ward 6,1954,871,2012,,177,64,Sold,,,https://www.redfin.com/MD/Baltimore/140-N-Duncan-St-21231/home/11892292,BRIGHT MLS,MDBA2031724,N,Y,39.2940196,-76.5871218
PAST SALE,,Townhouse,127 N Chester St,Baltimore,MD,21231,335000,,3.5,,1650,1045,2011,,203,,,,,https://www.redfin.com/MD/Baltimore/127-N-Chester-St-21231/home/11892298,,,N,Y,39.2939543,-76.5874152
PAST SALE,May-31-2021,Townhouse,1714 Mount Pleasant Ave,Baltimore,MD,21231,355000,3,2.5,Ward 2,2599,740,2010,,137,25,Sold,,,https://www.redfin.com/MD/Baltimore/1714-Mt-Pleasant-Ave-21231/home/11892306,BRIGHT MLS,MDBA547296,N,Y,39.2899339,-76.5929
PAST SALE,April-22-2022,Townhouse,124 S Ann St,Baltimore,MD,21231,635000,3,3.0,Ward 2,2474,1742,2013,,257,,Sold,,,https://www.redfin.com/MD/Baltimore/124-S-Ann-St-21231/home/52460598,BRIGHT MLS,MDBA2035742,N,Y,39.2897926,-76.5918618
PAST SALE,,Townhouse,3306 Clyde St,Baltimore,MD,21224,513500,3,4.0,,2550,1220,2010,,201,,,,,https://www.redfin.com/MD/Baltimore/3306-Clyde-St-21224/home/28568286,,,N,Y,39.2831088,-76.5693744
PAST SALE,,Townhouse,5401 Bristol Grn Way,Baltimore,MD,21229,380000,,3.0,,2169,2865,2016,,175,,,,,https://www.redfin.com/MD/Baltimore/5401-Bristol-Grn-Way-21229/home/52925987,,,N,Y,39.2887855,-76.7187555
PAST SALE,,Townhouse,3862 Quarry Ave,Baltimore,MD,21211,274900,,3.0,,1736,996,2014,,158,,,,,https://www.redfin.com/MD/Baltimore/3862-Quarry-Ave-21211/home/10874518,,,N,Y,39.3350941,-76.6377422
PAST SALE,April-15-2022,Townhouse,4322 Roland Heights Ave,Baltimore,MD,21211,410000,3,2.5,Ward 13,1800,1500,2021,,228,60,Sold,,,https://www.redfin.com/MD/Baltimore/4322-Roland-Heights-Ave-21211/home/171243905,BRIGHT MLS,MDBA2035108,N,Y,39.339523,-76.646374
PAST SALE,,Townhouse,4646 Hudson St,Baltimore,MD,21224,365000,,2.5,,1760,1307,2015,,207,,,,,https://www.redfin.com/MD/Baltimore/4646-Hudson-St-21224/home/70864136,,,N,Y,39.283511,-76.556134
PAST SALE,April-26-2022,Townhouse,4609 Hudson St,Baltimore,MD,21224,365000,3,3.0,Ward 26,1524,1306,2014,,240,73,Sold,,,https://www.redfin.com/MD/Baltimore/4609-Hudson-St-21224/home/85691263,BRIGHT MLS,MDBA2036006,N,Y,39.28273,-76.557014
PAST SALE,December-13-2021,Townhouse,907 S Macon St,Baltimore,MD,21224,385000,3,4.0,Ward 26,1920,1245,2015,,201,64,Sold,,,https://www.redfin.com/MD/Baltimore/907-S-Macon-St-21224/home/85691276,BRIGHT MLS,MDBA2016496,N,Y,39.282483,-76.557223
PAST SALE,April-29-2022,Townhouse,940 S Macon St,Baltimore,MD,21224,370000,3,4.0,Ward 26,1920,871,2015,,193,73,Sold,,,https://www.redfin.com/MD/Baltimore/940-S-Macon-St-21224/home/109860598,BRIGHT MLS,MDBA2037756,N,Y,39.2824038,-76.5576718
PAST SALE,May-3-2022,Townhouse,878 S Macon St,Baltimore,MD,21224,363617,3,3.0,Ward 26,1568,871,2016,,232,73,Sold,,,https://www.redfin.com/MD/Baltimore/878-S-Macon-St-21224/home/108433869,BRIGHT MLS,MDBA2036192,N,Y,39.2829634,-76.5572197
PAST SALE,,Townhouse,3420 Gunther Way,Baltimore,MD,21224,485000,,3.5,,1893,1045,2012,,256,,,,,https://www.redfin.com/MD/Baltimore/3420-Gunther-Way-21224/home/64338098,,,N,Y,39.2810991,-76.568115
PAST SALE,May-2-2022,Townhouse,129 N Chester St,Baltimore,MD,21231,396000,3,3.5,Ward 6,1554,,2011,,255,32,Sold,,,https://www.redfin.com/MD/Baltimore/129-N-Chester-St-21231/home/11892299,BRIGHT MLS,MDBA2037672,N,Y,39.2940114,-76.5873927
PAST SALE,December-14-2021,Townhouse,1504 S Charles St,Baltimore,MD,21230,490000,3,3.0,Ward 23,2044,1268,2015,,240,,Sold,,,https://www.redfin.com/MD/Baltimore/1504-S-Charles-St-21230/home/105470644,BRIGHT MLS,MDBA2015442,N,Y,39.2724108,-76.6142123
PAST SALE,February-4-2022,Townhouse,1211 Clarkson St,Baltimore,MD,21230,415000,3,3.0,Ward 23,1750,,2020,,237,,Sold,,,https://www.redfin.com/MD/Baltimore/1211-Clarkson-St-21230/home/109860361,BRIGHT MLS,MDBA537904,N,Y,39.2754679,-76.6159269
PAST SALE,August-1-2020,Townhouse,921 Grundy St,Baltimore,MD,21224,520950,3,3.0,BREWERS HILL,2226,1300,2019,,234,110,Sold,,,https://www.redfin.com/MD/Baltimore/921-Grundy-St-21224/home/167088495,BRIGHT MLS,MDBA472716,N,Y,39.2825133,-76.5629089
PAST SALE,,Townhouse,6709 Fairford Ln,Baltimore,MD,21209,630000,,3.5,,3764,5643,2018,,167,,,,,https://www.redfin.com/MD/Baltimore/6709-Fairford-Ln-21209/home/9708576,,,N,Y,39.3895121,-76.6620506
PAST SALE,,Townhouse,4231 Skyview,Baltimore,MD,21211,414900,,2.5,,2097,2091,2017,,198,,,,,https://www.redfin.com/MD/Baltimore/4231-Skyview-21211/home/109860493,,,N,Y,39.340037,-76.63677
PAST SALE,January-6-2022,Townhouse,1209 Clarkson St,Baltimore,MD,21230,413500,3,3.0,Ward 23,1750,,2020,,236,,Sold,,,https://www.redfin.com/MD/Baltimore/1209-Clarkson-St-21230/home/109860438,BRIGHT MLS,MDBA539982,N,Y,39.2752813,-76.6161896
PAST SALE,January-19-2021,Townhouse,1222 Berry St,Baltimore,MD,21211,457250,3,3.5,Ward 13,2824,871,2016,,162,155,Sold,,,https://www.redfin.com/MD/Baltimore/1222-Berry-St-21211/home/102325131,BRIGHT MLS,MDBA526456,N,Y,39.3318401,-76.6364306
PAST SALE,,Townhouse,1027 Skyview,Baltimore,MD,21211,410000,3,4.0,,1970,1176,2018,,208,,,,,https://www.redfin.com/MD/Baltimore/1027-Skyview-21211/home/109860486,,,N,Y,39.3391362,-76.6358297
PAST SALE,May-10-2021,Townhouse,528 E 21st St,Baltimore,MD,21218,333727,3,2.5,Ward 9,2190,1260,2020,,152,,Sold,,,https://www.redfin.com/MD/Baltimore/528-E-21st-St-21218/home/10808856,BRIGHT MLS,MDBA516278,N,Y,39.3137649,-76.608638
PAST SALE,February-26-2021,Townhouse,715 S Macon St,Baltimore,MD,21224,278000,3,2.5,Ward 26,1376,871,2013,,202,64,Sold,,,https://www.redfin.com/MD/Baltimore/715-S-Macon-St-21224/home/50276689,BRIGHT MLS,MDBA538516,N,Y,39.2846091,-76.5566006
PAST SALE,September-7-2021,Townhouse,864 S Macon St,Baltimore,MD,21224,355000,3,3.5,Ward 26,2068,871,2016,,172,64,Sold,,,https://www.redfin.com/MD/Baltimore/864-S-Macon-St-21224/home/102749384,BRIGHT MLS,MDBA2006298,N,Y,39.2832478,-76.5573438
PAST SALE,November-30-2020,Townhouse,225 S Newkirk St,Baltimore,MD,21224,378530,3,4.0,Ward 26,2075,1088,2020,,182,44,Sold,,,https://www.redfin.com/MD/Baltimore/225-S-Newkirk-St-21224/home/147011266,BRIGHT MLS,MDBA519378,N,Y,39.2894949,-76.5565314
PAST SALE,July-31-2020,Townhouse,4005 Harmony Ct,Baltimore,MD,21224,578224,3,3.5,BREWERS HILL,2227,1020,2020,,260,110,Sold,,,https://www.redfin.com/MD/Baltimore/4005-Harmony-Ct-21224/home/171236771,BRIGHT MLS,MDBA506020,N,Y,39.2823363,-76.5626398
PAST SALE,January-11-2021,Townhouse,803 North Madeira,Baltimore,MD,21205,272000,3,3.5,MIDDLE EAST,1600,1430,2020,,170,57,Sold,,,https://www.redfin.com/MD/Baltimore/803-N-Madeira-St-21205/home/10769889,BRIGHT MLS,MDBA507622,N,Y,39.300142,-76.5858235
PAST SALE,March-28-2022,Townhouse,204 S Macon St,Baltimore,MD,21224,380000,3,3.5,Ward 26,1600,,2019,,238,53,Sold,,,https://www.redfin.com/MD/Baltimore/204-S-Macon-St-21224/home/147010877,BRIGHT MLS,MDBA2033144,N,Y,39.2899178,-76.5576849
PAST SALE,,Townhouse,4608 Marlene Mews,Baltimore,MD,21224,330000,,2.0,,1600,1089,2018,,206,,,,,https://www.redfin.com/MD/Baltimore/4608-Marlene-Mews-21224/home/166333468,,,N,Y,39.2906119,-76.5571668
PAST SALE,August-20-2021,Townhouse,925 Grundy St,Baltimore,MD,21224,740000,3,3.0,Ward 26,2481,1307,2019,,298,150,Sold,,,https://www.redfin.com/MD/Baltimore/925-Grundy-St-21224/home/166812932,BRIGHT MLS,MDBA2008156,N,Y,39.2818249,-76.562912
PAST SALE,January-1-2022,Townhouse,4002 Harmony Ct,Baltimore,MD,21224,610025,3,3.5,Ward 26,,1002,2021,,,150,Sold,,,https://www.redfin.com/MD/Baltimore/4002-Harmony-Ct-21224/home/171245437,BRIGHT MLS,MDBA542860,N,Y,39.28237,-76.5626
PAST SALE,January-24-2022,Townhouse,4006 Harmony Ct,Baltimore,MD,21224,616785,3,3.5,Ward 26,2600,1002,2021,,237,150,Sold,,,https://www.redfin.com/MD/Baltimore/4006-Harmony-Ct-21224/home/171245439,BRIGHT MLS,MDBA542872,N,Y,39.282311,-76.562449
PAST SALE,May-28-2020,Townhouse,4306 La Plata Ave,Baltimore,MD,21211,349990,3,2.5,ROLAND HEIGHTS,2329,1962,2020,,150,60,Sold,,,https://www.redfin.com/MD/Baltimore/4306-La-Plata-Ave-21211/home/170361722,BRIGHT MLS,MDBA497576,N,Y,39.339314,-76.645484
PAST SALE,June-3-2020,Townhouse,4304 La Plata Ave,Baltimore,MD,21211,334990,3,2.5,ROLAND HEIGHTS,2329,1962,2020,,144,60,Sold,,,https://www.redfin.com/MD/Baltimore/4304-La-Plata-Ave-21211/home/170361723,BRIGHT MLS,MDBA497578,N,Y,39.3398152,-76.6462136
PAST SALE,September-16-2020,Townhouse,4324 Laplata Ave,Baltimore,MD,21211,339990,3,2.5,Baltimore,1763,1500,2020,,193,60,Sold,,,https://www.redfin.com/MD/Baltimore/4324-La-Plata-Ave-21211/home/171243856,BRIGHT MLS,MDBA520178,N,Y,39.33977,-76.645794
PAST SALE,,Townhouse,1316 Lowman St,Baltimore,MD,21230,515000,,2.5,,2070,1742,2011,,249,,,,,https://www.redfin.com/MD/Baltimore/1316-Lowman-St-21230/home/11892501,,,N,Y,39.2717664,-76.594717
PAST SALE,March-26-2021,Townhouse,4317 Laplata Ave,Baltimore,MD,21211,346990,3,2.5,ROLAND HEIGHTS,1763,1500,2020,,197,60,Sold,,,https://www.redfin.com/MD/Baltimore/4317-La-Plata-Ave-21211/home/171243876,BRIGHT MLS,MDBA535978,N,Y,39.339432,-76.646015
PAST SALE,November-12-2021,Townhouse,1203 Clarkson St,Baltimore,MD,21230,400000,3,3.0,Ward 23,,,,,,,Sold,,,https://www.redfin.com/MD/Baltimore/1203-Clarkson-St-21230/home/109860588,BRIGHT MLS,MDBA530398,N,Y,39.2753633,-76.616002
PAST SALE,November-13-2020,Townhouse,4619 Dillon St,Baltimore,MD,21224,300000,3,3.5,Ward 26,1920,,2010,,156,38,Sold,,,https://www.redfin.com/MD/Baltimore/4619-Dillon-St-21224/home/11892640,BRIGHT MLS,MDBA521198,N,Y,39.2817706,-76.5566674
PAST SALE,,Townhouse,4628 Fait Ave,Baltimore,MD,21224,400000,,3.0,,1940,1220,2012,,206,,,,,https://www.redfin.com/MD/Baltimore/4628-Fait-Ave-21224/home/50276696,,,N,Y,39.2840939,-76.5561032
PAST SALE,,Townhouse,4524 Fait Ave,Baltimore,MD,21224,307500,,2.5,,1792,1002,2013,,172,,,,,https://www.redfin.com/MD/Baltimore/4524-Fait-Ave-21224/home/59254340,,,N,Y,39.2841024,-76.5574145
PAST SALE,March-31-2021,Townhouse,801 S Macon St,Baltimore,MD,21224,364900,3,2.5,Ward 26,1940,,2015,,188,64,Sold,,,https://www.redfin.com/MD/Baltimore/801-S-Macon-St-21224/home/85691315,BRIGHT MLS,MDBA2000320,N,Y,39.2837895,-76.5568947
PAST SALE,,Townhouse,4503 Fait Ave,Baltimore,MD,21224,342000,,2.5,,1568,1002,2016,,218,,,,,https://www.redfin.com/MD/Baltimore/4503-Fait-Ave-21224/home/106092348,,,N,Y,39.283751,-76.5580636
PAST SALE,,Townhouse,942 S Macon St,Baltimore,MD,21224,282500,,2.5,,1504,871,2015,,188,,,,,https://www.redfin.com/MD/Baltimore/942-S-Macon-St-21224/home/109860657,,,N,Y,39.2824043,-76.5575758
PAST SALE,,Townhouse,9 S High St,Baltimore,MD,21202,520000,,3.0,,2346,4835,2015,,222,,,,,https://www.redfin.com/MD/Baltimore/9-S-High-St-21202/home/21912763,,,N,Y,39.2898651,-76.6039319
PAST SALE,May-31-2021,Townhouse,585 Baker St,Baltimore,MD,21217,202999,3,2.5,BAKERS VIEW,1296,2178,2019,,157,,Sold,,,https://www.redfin.com/MD/Baltimore/585-Baker-St-21217/home/169593834,BRIGHT MLS,MDBA532172,N,Y,39.3084646,-76.639859
PAST SALE,March-15-2022,Townhouse,823 Macon St S,Baltimore,MD,21224,375000,3,3.0,O'DONNELL SQUARE,1760,,2016,,213,73,Sold,,,https://www.redfin.com/MD/Baltimore/823-S-Macon-St-21224/home/108434322,BRIGHT MLS,MDBA2028684,N,Y,39.2833148,-76.5568383
PAST SALE,September-3-2021,Townhouse,3028 Elliott St,Baltimore,MD,21224,723432,3,4.0,Ward 1,2480,1200,2021,,292,,Sold,,,https://www.redfin.com/MD/Baltimore/3028-Elliott-St-21224/home/10733747,BRIGHT MLS,MDBA537202,N,Y,39.2794503,-76.5729234
PAST SALE,October-8-2021,Townhouse,1123 S Decker Ave,Baltimore,MD,21224,685000,3,3.5,Ward 1,2300,1050,2021,,298,,Sold,,,https://www.redfin.com/MD/Baltimore/1123-S-Decker-Ave-21224/home/10733785,BRIGHT MLS,MDBA539400,N,Y,39.2796056,-76.5730588
PAST SALE,,Townhouse,400 Grundy St,Baltimore,MD,21224,335000,,3.5,,2800,1612,2011,,120,,,,,https://www.redfin.com/MD/Baltimore/400-Grundy-St-21224/home/21994453,,,N,Y,39.2876216,-76.5636136
PAST SALE,July-31-2020,Townhouse,520 E 21st St,Baltimore,MD,21218,323000,3,2.5,Ward 9,2200,1260,2019,,147,,Sold,,,https://www.redfin.com/MD/Baltimore/520-E-21st-St-21218/home/10808852,BRIGHT MLS,MDBA495444,N,Y,39.313757,-76.6088429
PAST SALE,January-15-2021,Townhouse,4610 Dillon Pl,Baltimore,MD,21224,322000,3,3.5,Ward 26,2032,,2015,,158,38,Sold,,,https://www.redfin.com/MD/Baltimore/4610-Dillon-Pl-21224/home/11892673,BRIGHT MLS,MDBA520430,N,Y,39.2824514,-76.5568443
PAST SALE,,Townhouse,4630 Dillon Pl,Baltimore,MD,21224,315000,,3.5,,2032,784,2015,,155,,,,,https://www.redfin.com/MD/Baltimore/4630-Dillon-Pl-21224/home/28546593,,,N,Y,39.2824909,-76.5563528
PAST SALE,February-19-2022,Townhouse,719 S Macon St,Baltimore,MD,21224,305000,3,2.5,Ward 26,1376,1306,2013,,222,64,Sold,,,https://www.redfin.com/MD/Baltimore/719-S-Macon-St-21224/home/50276687,BRIGHT MLS,MDBA2000967,N,Y,39.2846136,-76.5564815
PAST SALE,,Townhouse,4616 Dillon Pl,Baltimore,MD,21224,355000,,3.5,,2032,784,2015,,175,,,,,https://www.redfin.com/MD/Baltimore/4616-Dillon-Pl-21224/home/28546610,,,N,Y,39.282423,-76.556739
PAST SALE,March-28-2022,Townhouse,917 S Macon St,Baltimore,MD,21224,339000,3,2.5,Ward 26,1832,,2015,,185,73,Sold,,,https://www.redfin.com/MD/Baltimore/917-S-Macon-St-21224/home/85691260,BRIGHT MLS,MDBA2038936,N,Y,39.282288,-76.557193
PAST SALE,,Townhouse,803 W 32nd St,Baltimore,MD,21211,539000,,3.0,,2118,1742,2018,,254,,,,,https://www.redfin.com/MD/Baltimore/803-W-32nd-St-21211/home/109860721,,,N,Y,39.3261458,-76.6302378
PAST SALE,,Townhouse,3601 Fleet St,Baltimore,MD,21224,556500,,4.0,,2091,741,2018,,266,,,,,https://www.redfin.com/MD/Baltimore/3601-Fleet-St-21224/home/113962735,,,N,Y,39.2854702,-76.5665686
PAST SALE,,Townhouse,4633 Dillon Pl,Baltimore,MD,21224,347500,,3.5,,1412,1307,2014,,246,,,,,https://www.redfin.com/MD/Baltimore/4633-Dillon-Pl-21224/home/11892671,,,N,Y,39.2822387,-76.55624
PAST SALE,September-23-2021,Townhouse,827 S Macon St,Baltimore,MD,21224,385000,3,3.5,O'DONNELL SQUARE,2053,871,2016,,188,64,Sold,,,https://www.redfin.com/MD/Baltimore/827-S-Macon-St-21224/home/101850097,BRIGHT MLS,MDBA2001982,N,Y,39.2832395,-76.556826
PAST SALE,,Townhouse,894 S Macon St,Baltimore,MD,21224,345000,,2.5,,1588,1045,2016,,217,,,,,https://www.redfin.com/MD/Baltimore/894-S-Macon-St-21224/home/108433868,,,N,Y,39.3018392,-76.5588603
PAST SALE,,Townhouse,846 S Macon St,Baltimore,MD,21224,336000,,2.5,,1588,1133,2016,,212,,,,,https://www.redfin.com/MD/Baltimore/846-S-Macon-St-21224/home/108433951,,,N,Y,39.2831824,-76.557933
PAST SALE,,Townhouse,4513 Fait Ave,Baltimore,MD,21224,314800,,2.5,,1568,1002,2016,,201,,,,,https://www.redfin.com/MD/Baltimore/4513-Fait-Ave-21224/home/108434574,,,N,Y,39.2837617,-76.5577663
PAST SALE,,Condo/Co-op,5185 Wyndholme Cir,Baltimore,MD,21229,230000,,,,,,,,,,,,,https://www.redfin.com/MD/Baltimore/5185-Wyndholme-Cir-21229/home/64338114,,,N,Y,39.2789115,-76.7033984
PAST SALE,,Townhouse,2617 Huron St,Baltimore,MD,21230,175000,,1.5,,1296,3498,2018,,135,,,,,https://www.redfin.com/MD/Baltimore/2617-Huron-St-21230/home/11039754,,,N,Y,39.2610187,-76.6447645
PAST SALE,April-15-2021,Townhouse,4337 Laplata Ave,Baltimore,MD,21211,380000,3,2.5,Ward 13,1763,1500,2020,,216,60,Sold,,,https://www.redfin.com/MD/Baltimore/4337-La-Plata-Ave-21211/home/171243886,BRIGHT MLS,MDBA539960,N,Y,39.340132,-76.646311
PAST SALE,,Townhouse,109 W Ropewalk Ln,Baltimore,MD,21230,388000,,3.0,,1871,784,2018,,207,,,,,https://www.redfin.com/MD/Baltimore/109-W-Ropewalk-Ln-21230/home/108434607,,,N,Y,39.275094,-76.6161458
PAST SALE,,Townhouse,1450 Sumwalt Ct,Baltimore,MD,21230,472000,,3.5,,2152,1437,2015,,219,,,,,https://www.redfin.com/MD/Baltimore/1450-Sumwalt-Ct-21230/home/101778677,,,N,Y,39.2730727,-76.6106857
PAST SALE,,Townhouse,5445 Old Frederick Rd,Baltimore,MD,21229,365000,,2.5,,2190,1742,2016,,167,,,,,https://www.redfin.com/MD/Baltimore/5445-Old-Frederick-Rd-21229/home/52925766,,,N,Y,39.2888346,-76.7208953
PAST SALE,,Condo/Co-op,5193 Wyndholme Cir,Baltimore,MD,21229,252071,,,,,,2013,,,,,,,https://www.redfin.com/MD/Baltimore/5193-Wyndholme-Cir-21229/home/59254344,,,N,Y,39.2790215,-76.703725
PAST SALE,October-13-2020,Townhouse,4301 Medfield Ave,Baltimore,MD,21211,349990,3,2.5,ROLAND HEIGHTS,1763,1500,2019,,199,60,Sold,,,https://www.redfin.com/MD/Baltimore/4301-Medfield-Ave-21211/home/18535959,BRIGHT MLS,MDBA491262,N,Y,39.3394261,-76.6452872
PAST SALE,,Townhouse,4508 Fait Ave,Baltimore,MD,21224,315000,,2.0,,1568,1350,2013,,201,,,,,https://www.redfin.com/MD/Baltimore/4508-Fait-Ave-21224/home/52735229,,,N,Y,39.2840836,-76.5579387
PAST SALE,May-7-2021,Townhouse,1604 Rampart Mews Mews,Baltimore,MD,21230,532000,3,3.5,Ward 24,2204,915,2015,,241,147,Sold,,,https://www.redfin.com/MD/Baltimore/1604-Rampart-Mews-21230/home/64338195,BRIGHT MLS,MDBA540794,N,Y,39.2714975,-76.5892993
PAST SALE,July-30-2021,Townhouse,3031 Dillon St,Baltimore,MD,21224,559000,3,3.5,Ward 1,3900,1089,2011,,143,,Sold,,,https://www.redfin.com/MD/Baltimore/3031-Dillon-St-21224/home/40608158,BRIGHT MLS,MDBA553218,N,Y,39.2811987,-76.5731141
PAST SALE,May-7-2021,Townhouse,733 S Macon St,Baltimore,MD,21224,317500,3,3.0,Ward 26,1600,,2012,,198,64,Sold,,,https://www.redfin.com/MD/Baltimore/733-S-Macon-St-21224/home/50276679,BRIGHT MLS,MDBA544310,N,Y,39.2844345,-76.5562677
PAST SALE,December-16-2020,Townhouse,6303 Canter Way #18,Baltimore,MD,21212,620000,3,4.5,WOODBROOK,4836,2337,2010,,128,582,Sold,,,https://www.redfin.com/MD/Baltimore/6303-Canter-Way-21212/unit-18/home/40026740,BRIGHT MLS,MDBC510586,N,Y,39.3799434,-76.6265213
PAST SALE,February-26-2021,Townhouse,4330 Roland Heights Ave,Baltimore,MD,21211,350000,3,2.5,Ward 13,1763,1500,2020,,199,60,Sold,,,https://www.redfin.com/MD/Baltimore/4330-Roland-Heights-Ave-21211/home/171243909,BRIGHT MLS,MDBA540320,N,Y,39.339735,-76.646501
PAST SALE,,Townhouse,144 N Duncan St,Baltimore,MD,21231,286500,,3.5,,1554,1045,2012,,184,,,,,https://www.redfin.com/MD/Baltimore/144-N-Duncan-St-21231/home/11892294,,,N,Y,39.2940992,-76.5871218
PAST SALE,,Townhouse,731 S Macon St,Baltimore,MD,21224,300000,,2.0,,1620,1089,2012,,185,,,,,https://www.redfin.com/MD/Baltimore/731-S-Macon-St-21224/home/44521072,,,N,Y,39.2846417,-76.5573466
PAST SALE,August-4-2021,Townhouse,742 S Macon St,Baltimore,MD,21224,325000,3,2.5,Ward 26,1568,1089,2014,,207,56,Sold,,,https://www.redfin.com/MD/Baltimore/742-S-Macon-St-21224/home/52713318,BRIGHT MLS,MDBA551660,N,Y,39.2845378,-76.5573402
PAST SALE,,Townhouse,1003 S Belnord Ave,Baltimore,MD,21224,480000,,3.5,,2217,915,2016,,217,,,,,https://www.redfin.com/MD/Baltimore/1003-S-Belnord-Ave-21224/home/10732882,,,N,Y,39.2809614,-76.5773253
PAST SALE,,Townhouse,4613 Dillon St,Baltimore,MD,21224,314900,,3.0,,1920,653,2010,,164,,,,,https://www.redfin.com/MD/Baltimore/4613-Dillon-St-21224/home/11892637,,,N,Y,39.2817628,-76.5568791
PAST SALE,,Townhouse,4528 Fait Ave,Baltimore,MD,21224,300000,,2.5,,1568,1002,2013,,191,,,,,https://www.redfin.com/MD/Baltimore/4528-Fait-Ave-21224/home/55182546,,,N,Y,39.2840491,-76.5572965
PAST SALE,March-24-2021,Townhouse,4611 Hudson St,Baltimore,MD,21224,355000,3,3.5,Ward 26,1856,871,2014,,191,64,Sold,,,https://www.redfin.com/MD/Baltimore/4611-Hudson-St-21224/home/85691286,BRIGHT MLS,MDBA535102,N,Y,39.2827137,-76.5568954
PAST SALE,March-4-2021,Townhouse,852 S Macon St,Baltimore,MD,21224,360000,3,3.5,Ward 26,2068,914,2016,,174,64,Sold,,,https://www.redfin.com/MD/Baltimore/852-S-Macon-St-21224/home/108434531,BRIGHT MLS,MDBA538434,N,Y,39.283237,-76.5576766
PAST SALE,,Townhouse,3415 Brewers Green Way,Baltimore,MD,21224,690000,,3.0,,2601,784,2018,,265,,,,,https://www.redfin.com/MD/Baltimore/3415-Brewers-Green-Way-21224/home/131161720,,,N,Y,39.2789183,-76.5679762
PAST SALE,June-1-2020,Townhouse,4400 Green Rose Ln,Baltimore,MD,21213,155000,3,2.5,Ward 26,2018,2613,2013,,77,50,Sold,,,https://www.redfin.com/MD/Baltimore/4400-Green-Rose-Ln-21213/home/12547008,BRIGHT MLS,MDBA501904,N,Y,39.3110013,-76.5627384
PAST SALE,,Condo/Co-op,1200 Steuart St #1022,Baltimore,MD,21230,530000,,,,2398,,2011,,221,,,,,https://www.redfin.com/MD/Baltimore/1200-Steuart-St-21230/unit-1022/home/23460586,,,N,Y,39.2697734,-76.5886798
PAST SALE,August-20-2020,Townhouse,5 Halston Ct,Baltimore,MD,21209,619900,3,2.5,ROCKLAND RIDGE,2912,6176,2010,,213,317,Sold,,,https://www.redfin.com/MD/Baltimore/5-Halston-Ct-21209/home/9550318,BRIGHT MLS,MDBC498686,N,Y,39.3930707,-76.6652525
PAST SALE,,Townhouse,1612 Rampart Mews,Baltimore,MD,21230,510000,,2.0,,2204,915,2015,,231,,,,,https://www.redfin.com/MD/Baltimore/1612-Rampart-Mews-21230/home/64338192,,,N,Y,39.2712674,-76.589146
PAST SALE,June-30-2020,Townhouse,301 E Lanvale St,Baltimore,MD,21202,460000,3,2.5,Ward 12,2273,1120,2019,,202,,Sold,,,https://www.redfin.com/MD/Baltimore/301-E-Lanvale-St-21202/home/170054616,BRIGHT MLS,MDBA493508,N,Y,39.3085512,-76.6118693
PAST SALE,October-5-2020,Townhouse,210 S Newkirk St,Baltimore,MD,21224,300490,3,3.5,OLDHAM CROSSING,1600,1088,2020,,188,44,Sold,,,https://www.redfin.com/MD/Baltimore/210-S-Newkirk-St-21224/home/147011248,BRIGHT MLS,MDBA509068,N,Y,39.2898459,-76.5569751
PAST SALE,,Townhouse,4366 Old Frederick Rd,Baltimore,MD,21229,219900,,2.5,,1424,958,2015,,154,,,,,https://www.redfin.com/MD/Baltimore/4366-Old-Frederick-Rd-21229/home/108434339,,,N,Y,39.2888237,-76.6896037
PAST SALE,,Condo/Co-op,5212 Wyndholme Cir #13,Baltimore,MD,21229,220000,,,,1961,,2011,,112,,,,,https://www.redfin.com/MD/Baltimore/5212-Wyndholme-Cir-21229/unit-13/home/45424557,,,N,Y,39.2794263,-76.7034147
PAST SALE,May-7-2021,Townhouse,4335 Laplata Ave,Baltimore,MD,21211,350000,3,2.5,ROLAND HEIGHTS,1763,1500,2020,,199,60,Sold,,,https://www.redfin.com/MD/Baltimore/4335-La-Plata-Ave-21211/home/171243885,BRIGHT MLS,MDBA539956,N,Y,39.34004,-76.646311
PAST SALE,January-29-2021,Townhouse,4319 La Plata Ave,Baltimore,MD,21211,339990,3,2.5,Baltimore,1763,1500,2020,,193,60,Sold,,,https://www.redfin.com/MD/Baltimore/4319-La-Plata-Ave-21211/home/171243877,BRIGHT MLS,MDBA502486,N,Y,39.339492,-76.646055
PAST SALE,June-17-2020,Townhouse,3409 Brewers Green Way,Baltimore,MD,21224,760000,3,3.0,Ward 26,2700,871,2018,,281,,Sold,,,https://www.redfin.com/MD/Baltimore/3409-Brewers-Green-Way-21224/home/131161701,BRIGHT MLS,MDBA497178,N,Y,39.2789118,-76.5681515
PAST SALE,April-9-2021,Townhouse,1039 Skyview,Baltimore,MD,21211,450000,3,4.0,Ward 13,2300,871,2018,,196,112,Sold,,,https://www.redfin.com/MD/Baltimore/1039-Skyview-21211/home/109860706,BRIGHT MLS,MDBA541772,N,Y,39.3390047,-76.636273
PAST SALE,June-1-2021,Townhouse,3030 Elliott St,Baltimore,MD,21224,680000,3,4.0,Ward 1,2480,1162,2021,,274,,Sold,,,https://www.redfin.com/MD/Baltimore/3030-Elliott-St-21224/home/10733749,BRIGHT MLS,MDBA536066,N,Y,39.2794623,-76.5728557
PAST SALE,,Townhouse,1608 Rampart Mews,Baltimore,MD,21230,515000,,3.0,,2204,915,2015,,234,,,,,https://www.redfin.com/MD/Baltimore/1608-Rampart-Mews-21230/home/64338190,,,N,Y,39.2713658,-76.589213
PAST SALE,December-4-2020,Townhouse,3107 Elm Ave,Baltimore,MD,21211,411706,3,2.0,HAMPDEN,2030,1742,2019,,203,65,Sold,,,https://www.redfin.com/MD/Baltimore/3107-Elm-Ave-21211/home/109860603,BRIGHT MLS,MDBA484512,N,Y,39.3257748,-76.6310115
PAST SALE,May-29-2020,Single Family Residential,2700 Hillsdale Rd,Baltimore,MD,21207,360000,3,2.5,GWYNN OAK,2542,8745,2011,,142,,Sold,,,https://www.redfin.com/MD/Baltimore/2700-Hillsdale-Rd-21207/home/11217331,BRIGHT MLS,MDBA501416,N,Y,39.317231,-76.7022872
PAST SALE,,Townhouse,822 Oldham St,Baltimore,MD,21224,340000,3,3.5,,1856,1307,2015,,183,,,,,https://www.redfin.com/MD/Baltimore/822-Oldham-St-21224/home/85691304,,,N,Y,39.2832967,-76.5557296
PAST SALE,,Townhouse,1009 Rutland Ave,Baltimore,MD,21213,346900,,2.5,,1760,1258,2019,,197,,,,,https://www.redfin.com/MD/Baltimore/1009-Rutland-Ave-21213/home/167902620,,,N,Y,39.3025547,-76.5923258
PAST SALE,,Townhouse,3307 Fait Ave,Baltimore,MD,21224,512500,,3.5,,2300,1220,2010,,223,,,,,https://www.redfin.com/MD/Baltimore/3307-Fait-Ave-21224/home/21619660,,,N,Y,39.2833351,-76.5694137
PAST SALE,,Townhouse,4623 Dillon St,Baltimore,MD,21224,303500,,2.5,,1743,653,2010,,174,,,,,https://www.redfin.com/MD/Baltimore/4623-Dillon-St-21224/home/11892642,,,N,Y,39.2818278,-76.5565133
PAST SALE,October-26-2020,Townhouse,4610 Hudson St,Baltimore,MD,21224,395000,3,3.5,Ward 26,2158,1306,2016,,183,64,Sold,,,https://www.redfin.com/MD/Baltimore/4610-Hudson-St-21224/home/103641032,BRIGHT MLS,MDBA518854,N,Y,39.2829874,-76.5568495
PAST SALE,October-28-2020,Townhouse,212 S Newkirk St,Baltimore,MD,21224,332985,3,3.5,Ward 26,1845,1088,2020,,180,44,Sold,,,https://www.redfin.com/MD/Baltimore/212-S-Newkirk-St-21224/home/147011247,BRIGHT MLS,MDBA524964,N,Y,39.2898005,-76.5569722
PAST SALE,July-24-2020,Townhouse,522 E 21st St,Baltimore,MD,21218,319000,3,2.5,MIDWAY,1800,2000,2019,,177,,Sold,,,https://www.redfin.com/MD/Baltimore/522-E-21st-St-21218/home/10808853,BRIGHT MLS,MDBA483776,N,Y,39.313759,-76.608793
PAST SALE,,Townhouse,812 Oldham St,Baltimore,MD,21224,345000,,3.5,,1856,1307,2015,,186,,,,,https://www.redfin.com/MD/Baltimore/812-Oldham-St-21224/home/85691309,,,N,Y,39.2835452,-76.5557527
PAST SALE,,Townhouse,4652 Dillon Pl,Baltimore,MD,21224,350000,,3.5,,2368,4,2013,,148,,,,,https://www.redfin.com/MD/Baltimore/4652-Dillon-Pl-21224/home/11892684,,,N,Y,39.2820163,-76.5559323
PAST SALE,July-15-2021,Townhouse,4506 Fait Ave,Baltimore,MD,21224,325000,3,2.5,Ward 26,1792,,2013,,181,56,Sold,,,https://www.redfin.com/MD/Baltimore/4506-Fait-Ave-21224/home/49781195,BRIGHT MLS,MDBA550458,N,Y,39.2840881,-76.5580307
PAST SALE,,Townhouse,410 Grundy St,Baltimore,MD,21224,285000,,2.5,,1600,1263,2011,,178,,,,,https://www.redfin.com/MD/Baltimore/410-Grundy-St-21224/home/21997989,,,N,Y,39.2874119,-76.5636294
PAST SALE,June-14-2021,Townhouse,710 S Macon St,Baltimore,MD,21224,325000,3,2.5,Ward 26,1568,1089,2013,,207,64,Sold,,,https://www.redfin.com/MD/Baltimore/710-S-Macon-St-21224/home/52322669,BRIGHT MLS,MDBA546484,N,Y,39.2845804,-76.5575072
PAST SALE,January-28-2021,Townhouse,524 E 21st St,Baltimore,MD,21218,311850,3,2.5,Ward 9,,8000,,,,,Sold,,,https://www.redfin.com/MD/Baltimore/524-E-21st-St-21218/home/40038396,BRIGHT MLS,MDBA512474,N,Y,39.313761,-76.60874
PAST SALE,,Townhouse,1528 Marshall St,Baltimore,MD,21230,445000,,3.5,,1696,915,2015,,262,,,,,https://www.redfin.com/MD/Baltimore/1528-Marshall-St-21230/home/56336648,,,N,Y,39.2717794,-76.6125526
PAST SALE,,Single Family Residential,7703 Everall Ave #21236,Baltimore,MD,21236,320000,,3.5,,2492,6055,2017,,128,,,,,https://www.redfin.com/MD/Baltimore/7703-Everall-Ave-21236/unit-21236/home/108557809,,,N,Y,39.3651303,-76.531685
PAST SALE,,Townhouse,4403 Cherry Way,Baltimore,MD,21229,280000,,2.5,,2056,2526,2016,,136,,,,,https://www.redfin.com/MD/Baltimore/4403-Cherry-Way-21229/home/113374467,,,N,Y,39.2900434,-76.6897231
PAST SALE,September-23-2021,Townhouse,916 Fagley St,Baltimore,MD,21224,625000,3,3.0,Ward 26,2605,1306,2015,,240,,Sold,,,https://www.redfin.com/MD/Baltimore/916-Fagley-St-21224/home/55056763,BRIGHT MLS,MDBA2003256,N,Y,39.2819891,-76.564242
PAST SALE,,Condo/Co-op,5336 Wyndholme Cir #3,Baltimore,MD,21229,260000,,,,,,2014,,,,,,,https://www.redfin.com/MD/Baltimore/5336-Wyndholme-Cir-21229/unit-3/home/59254355,,,N,Y,39.2782485,-76.7046889
PAST SALE,,Townhouse,706 S Macon St,Baltimore,MD,21224,335000,,2.5,,1568,915,2013,,214,,,,,https://www.redfin.com/MD/Baltimore/706-S-Macon-St-21224/home/59254442,,,N,Y,39.2848643,-76.557359
PAST SALE,December-10-2021,Townhouse,828 S Robinson St,Baltimore,MD,21224,587500,3,4.0,Ward 1,2698,1306,2015,,218,,Sold,,,https://www.redfin.com/MD/Baltimore/828-S-Robinson-St-21224/home/85691310,BRIGHT MLS,MDBA2012696,N,Y,39.2825075,-76.5720939
PAST SALE,,Townhouse,932 S Macon St,Baltimore,MD,21224,332000,,2.0,,1684,915,2015,,197,,,,,https://www.redfin.com/MD/Baltimore/932-S-Macon-St-21224/home/108433930,,,N,Y,39.2824208,-76.5578915
PAST SALE,,Single Family Residential,2066 Eric Shaefer Way,Baltimore,MD,21211,905625,,3.0,,2624,8015,2014,,345,,,,,https://www.redfin.com/MD/Baltimore/2066-Eric-Shaefer-Way-21211/home/45424388,,,N,Y,39.330867,-76.6462767
PAST SALE,August-27-2021,Townhouse,1021 Pier Pointe Lndg #116,Baltimore,MD,21230,715000,3,2.5,Ward 24,3299,,2010,,217,922,Sold,,,https://www.redfin.com/MD/Baltimore/1021-Pointe-Lndg-21230/unit-116/home/11892401,BRIGHT MLS,MDBA2001230,N,Y,39.2782037,-76.6058211
PAST SALE,July-29-2021,Townhouse,424 E Oliver St,Baltimore,MD,21202,300000,3,2.5,Ward 12,300,11369,2012,,1000,,Sold,,,https://www.redfin.com/MD/Baltimore/424-E-Oliver-St-21202/home/28546455,BRIGHT MLS,MDBA2001978,N,Y,39.3070843,-76.6098551
PAST SALE,June-15-2021,Condo/Co-op,801 Key Hwy #320,Baltimore,MD,21230,1375000,3,4.5,Ward 24,4163,,2010,,330,3959,Sold,,,https://www.redfin.com/MD/Baltimore/801-Key-Hwy-21230/unit-320/home/23459870,BRIGHT MLS,MDBA533006,N,Y,39.2804736,-76.6059791
PAST SALE,,Other,4506 Craddock Ave,Baltimore,MD,21212,268999,,,,,3584,,,,,,,,https://www.redfin.com/MD/Baltimore/4506-Craddock-Ave-21212/home/11192437,,,N,Y,39.3457289,-76.6018616
PAST SALE,,Townhouse,3858 Quarry Ave,Baltimore,MD,21211,260000,,3.0,,1796,996,2014,,145,,,,,https://www.redfin.com/MD/Baltimore/3858-Quarry-Ave-21211/home/10874512,,,N,Y,39.3350291,-76.6377156
PAST SALE,June-29-2021,Townhouse,1308 Benjamin St,Baltimore,MD,21230,560000,3,3.5,Ward 24,2204,958,2015,,254,147,Sold,,,https://www.redfin.com/MD/Baltimore/1308-Benjamin-St-21230/home/56701614,BRIGHT MLS,MDBA552970,N,Y,39.2692595,-76.5881827
PAST SALE,,Townhouse,842 S Macon St,Baltimore,MD,21224,313250,,2.5,,1588,915,2016,,197,,,,,https://www.redfin.com/MD/Baltimore/842-S-Macon-St-21224/home/108433945,,,N,Y,39.2832712,-76.557939
PAST SALE,June-12-2020,Townhouse,1014 N Durham St,Baltimore,MD,21205,400000,3,3.5,Baltimore,2224,1120,2019,,180,50,Sold,,,https://www.redfin.com/MD/Baltimore/1014-N-Durham-St-21205/home/143319283,BRIGHT MLS,MDBA475820,N,Y,39.3021828,-76.5920008
PAST SALE,April-9-2021,Townhouse,1245 Towson St,Baltimore,MD,21230,699900,3,3.0,LOCUST POINT,1970,871,2017,,355,80,Sold,,,https://www.redfin.com/MD/Baltimore/1245-Towson-St-21230/home/144267179,BRIGHT MLS,MDBA540138,N,Y,39.2711797,-76.5906653
PAST SALE,January-25-2021,Townhouse,233 S Newkirk St,Baltimore,MD,21224,352445,3,3.5,Ward 26,1990,1088,2020,,177,44,Sold,,,https://www.redfin.com/MD/Baltimore/233-S-Newkirk-St-21224/home/147011262,BRIGHT MLS,MDBA525588,N,Y,39.2892922,-76.5565184
PAST SALE,January-20-2021,Townhouse,231 S Newkirk St,Baltimore,MD,21224,309060,3,3.5,OLDHAM CROSSING,1600,1088,2020,,193,44,Sold,,,https://www.redfin.com/MD/Baltimore/231-S-Newkirk-St-21224/home/147011263,BRIGHT MLS,MDBA519266,N,Y,39.2893368,-76.5565213
PAST SALE,July-15-2021,Townhouse,905 Grundy St,Baltimore,MD,21224,596000,3,3.5,BREWERS HILL,2450,1045,2021,,243,150,Sold,,,https://www.redfin.com/MD/Baltimore/905-Grundy-St-21224/home/171245432,BRIGHT MLS,MDBA547386,N,Y,39.2825796,-76.5629141
PAST SALE,,Townhouse,125 N Chester St,Baltimore,MD,21231,300000,,3.5,,1650,1045,2011,,182,,,,,https://www.redfin.com/MD/Baltimore/125-N-Chester-St-21231/home/11892297,,,N,Y,39.2939118,-76.5873927
PAST SALE,,Townhouse,111 S Newkirk St,Baltimore,MD,21224,309000,,3.5,,1408,1089,2018,,219,,,,,https://www.redfin.com/MD/Baltimore/111-S-Newkirk-St-21224/home/145046937,,,N,Y,39.2913153,-76.5566915
PAST SALE,January-22-2021,Townhouse,3405 Brewers Green Way,Baltimore,MD,21224,702000,3,3.0,Ward 26,2700,871,2018,,260,,Sold,,,https://www.redfin.com/MD/Baltimore/3405-Brewers-Green-Way-21224/home/131161680,BRIGHT MLS,MDBA499084,N,Y,39.2789074,-76.5682729
PAST SALE,June-3-2021,Single Family Residential,7502 Riddle Ave,Baltimore,MD,21224,305000,3,3.5,EAST VIEW,1352,7535,2011,,226,,Sold,,,https://www.redfin.com/MD/Baltimore/7502-Riddle-Ave-21224/home/9337842,BRIGHT MLS,MDBC523834,N,Y,39.288816,-76.5178192
PAST SALE,October-2-2020,Townhouse,602-1/2 S Dean St,Baltimore,MD,21224,499000,3,4.0,Ward 26,2400,,2020,,208,70,Sold,,,https://www.redfin.com/MD/Baltimore/2-S-Dean-St-21224/home/172255827,BRIGHT MLS,MDBA514604,N,Y,39.2918968,-76.5667864
PAST SALE,June-17-2020,Townhouse,166 Oldham St,Baltimore,MD,21224,315565,3,4.0,Ward 26,2075,1088,2020,,152,44,Sold,,,https://www.redfin.com/MD/Baltimore/166-Oldham-St-21224/home/147011225,BRIGHT MLS,MDBA498370,N,Y,39.2908557,-76.5562468
PAST SALE,July-13-2020,Townhouse,2307 E Fairmount Ave,Baltimore,MD,21224,397000,3,3.0,Ward 6,2006,,2017,,198,,Sold,,,https://www.redfin.com/MD/Baltimore/2307-E-Fairmount-Ave-21224/home/10758846,BRIGHT MLS,MDBA504556,N,Y,39.292833,-76.5842009
PAST SALE,,Townhouse,1300 Lowman St,Baltimore,MD,21230,520000,,3.5,,2070,3833,2011,,251,,,,,https://www.redfin.com/MD/Baltimore/1300-Lowman-St-21230/home/11891874,,,N,Y,39.2721785,-76.5944913
PAST SALE,,Condo/Co-op,5230 Wyndholme Cir #31,Baltimore,MD,21229,250000,,,,1756,,2010,,142,,,,,https://www.redfin.com/MD/Baltimore/5230-Wyndholme-Cir-21229/unit-31/home/40038346,,,N,Y,39.2797083,-76.7042153
PAST SALE,March-23-2021,Townhouse,4301 La Plata Ave,Baltimore,MD,21211,440000,3,2.5,ROLAND HEIGHTS,2329,1500,2020,,189,60,Sold,,,https://www.redfin.com/MD/Baltimore/4301-La-Plata-Ave-21211/home/168338915,BRIGHT MLS,MDBA510584,N,Y,39.3393863,-76.6454389
PAST SALE,March-5-2021,Townhouse,4324 Roland Heights Ave,Baltimore,MD,21211,340000,3,2.5,ROLAND HEIGHTS,1763,1500,2020,,193,60,Sold,,,https://www.redfin.com/MD/Baltimore/4324-Roland-Heights-Ave-21211/home/171243906,BRIGHT MLS,MDBA540332,N,Y,39.339573,-76.646408
PAST SALE,February-26-2021,Townhouse,4326 Roland Heights Ave,Baltimore,MD,21211,345000,3,2.5,Ward 13,1763,1500,2020,,196,60,Sold,,,https://www.redfin.com/MD/Baltimore/4326-Roland-Heights-Ave-21211/home/171243907,BRIGHT MLS,MDBA540324,N,Y,39.339621,-76.646439
PAST SALE,,Townhouse,4321 Medfield Ave,Baltimore,MD,21211,329990,,2.5,,1800,1176,2019,,183,,,,,https://www.redfin.com/MD/Baltimore/4321-Medfield-Ave-21211/home/171243833,,,N,Y,39.339741,-76.64553
PAST SALE,October-28-2020,Townhouse,4327 Medfield Ave,Baltimore,MD,21211,334990,3,2.5,ROLAND HEIGHTS,1763,1500,2020,,190,60,Sold,,,https://www.redfin.com/MD/Baltimore/4327-Medfield-Ave-21211/home/171243836,BRIGHT MLS,MDBA502468,N,Y,39.339891,-76.64563
PAST SALE,April-30-2021,Townhouse,4311 Laplata Ave,Baltimore,MD,21211,385000,3,2.5,Ward 13,1763,1500,2020,,218,60,Sold,,,https://www.redfin.com/MD/Baltimore/4311-La-Plata-Ave-21211/home/171243873,BRIGHT MLS,MDBA539950,N,Y,39.3394689,-76.6455692
PAST SALE,March-26-2021,Townhouse,4313 Laplata Ave,Baltimore,MD,21211,350000,3,3.0,Ward 13,1800,,2020,,194,54,Sold,,,https://www.redfin.com/MD/Baltimore/4313-La-Plata-Ave-21211/home/171243874,BRIGHT MLS,MDBA2024560,N,Y,39.339335,-76.645948
PAST SALE,April-23-2021,Townhouse,4333 Laplata Ave,Baltimore,MD,21211,379990,3,2.5,Ward 13,1763,1500,2020,,216,60,Sold,,,https://www.redfin.com/MD/Baltimore/4333-La-Plata-Ave-21211/home/171243884,BRIGHT MLS,MDBA539952,N,Y,39.339953,-76.646309
PAST SALE,August-18-2021,Townhouse,1718 Lantern Mews,Baltimore,MD,21205,315000,3,3.5,EAGER PARK,1610,871,2016,,196,50,Sold,,,https://www.redfin.com/MD/Baltimore/1718-Lantern-Mews-21205/home/10768763,BRIGHT MLS,MDBA553184,N,Y,39.3028888,-76.5931548
PAST SALE,June-29-2020,Townhouse,1808 E Eager St,Baltimore,MD,21205,424990,3,3.5,Baltimore,2690,1120,2019,,158,50,Sold,,,https://www.redfin.com/MD/Baltimore/1808-E-Eager-St-21205/home/167579906,BRIGHT MLS,MDBA511332,N,Y,39.3021003,-76.5920988
PAST SALE,April-30-2021,Townhouse,505 S Caroline St,Baltimore,MD,21231,665000,3,3.5,Ward 3,2250,1080,2020,,296,,Sold,,,https://www.redfin.com/MD/Baltimore/505-S-Caroline-St-21231/home/173062379,BRIGHT MLS,MDBA532522,N,Y,39.2852081,-76.5965471
PAST SALE,June-23-2020,Townhouse,1018 N Durham St,Baltimore,MD,21205,399205,3,3.5,Baltimore,2229,1120,2019,,179,50,Sold,,,https://www.redfin.com/MD/Baltimore/1018-N-Durham-St-21205/home/169730329,BRIGHT MLS,MDBA490976,N,Y,39.3022388,-76.5919733
PAST SALE,August-27-2020,Townhouse,236 S Newkirk St,Baltimore,MD,21224,313670,3,3.5,OLDHAM CROSSING,1622,1088,2020,,193,44,Sold,,,https://www.redfin.com/MD/Baltimore/236-S-Newkirk-St-21224/home/147011235,BRIGHT MLS,MDBA505572,N,Y,39.2892345,-76.5569357
PAST SALE,,Townhouse,103 W Ropewalk Ln,Baltimore,MD,21230,378000,3,3.0,,1739,828,2018,,217,,,,,https://www.redfin.com/MD/Baltimore/103-W-Ropewalk-Ln-21230/home/108434605,,,N,Y,39.2751297,-76.6160209
PAST SALE,July-19-2021,Townhouse,17 Birckhead St,Baltimore,MD,21230,449000,3,3.5,Ward 23,1985,1089,2013,,226,25,Sold,,,https://www.redfin.com/MD/Baltimore/17-Birckhead-St-21230/home/59254406,BRIGHT MLS,MDBA551762,N,Y,39.2729999,-76.6131245
PAST SALE,March-24-2021,Townhouse,4322 Laplata Ave,Baltimore,MD,21211,350000,3,2.5,ROLAND HEIGHTS,1763,1500,2020,,199,60,Sold,,,https://www.redfin.com/MD/Baltimore/4322-La-Plata-Ave-21211/home/171243855,BRIGHT MLS,MDBA529180,N,Y,39.33978034700556,-76.64592399661682
PAST SALE,,Townhouse,735 S Macon St,Baltimore,MD,21224,345000,,3.0,,1940,1873,2012,,178,,,,,https://www.redfin.com/MD/Baltimore/735-S-Macon-St-21224/home/50276680,,,N,Y,39.2843231,-76.5562622
PAST SALE,June-22-2020,Townhouse,25 Birckhead St,Baltimore,MD,21230,425000,3,3.5,Ward 23,2070,1133,2013,,205,25,Sold,,,https://www.redfin.com/MD/Baltimore/25-Birckhead-St-21230/home/59254400,BRIGHT MLS,MDBA504652,N,Y,39.2730124,-76.6128717
PAST SALE,May-26-2021,Townhouse,5338 Wyndholme Cir #4,Baltimore,MD,21229,260000,3,2.5,Ward 25,,1877,2013,,,221,Sold,,,https://www.redfin.com/MD/Baltimore/5338-Wyndholme-Cir-21229/unit-4/home/59254350,BRIGHT MLS,MDBA543744,N,Y,39.2780749,-76.7041364
PAST SALE,March-18-2022,Townhouse,119 S Newkirk St,Baltimore,MD,21224,356000,3,3.0,Ward 26,1880,1742,2018,,189,52,Sold,,,https://www.redfin.com/MD/Baltimore/119-S-Newkirk-St-21224/home/145046936,BRIGHT MLS,MDBA2031058,N,Y,39.2910962,-76.5566915
PAST SALE,May-29-2020,Townhouse,516 E 21st St,Baltimore,MD,21218,289000,3,2.5,MIDWAY,1800,2000,2019,,161,,Sold,,,https://www.redfin.com/MD/Baltimore/516-E-21st-St-21218/home/10808849,BRIGHT MLS,MDBA483438,N,Y,39.3137225,-76.608924
PAST SALE,March-17-2022,Townhouse,1602 Barclay St,Baltimore,MD,21202,387000,3,2.0,Ward 12,2212,1260,2019,,175,,Sold,,,https://www.redfin.com/MD/Baltimore/1602-Barclay-St-21202/home/109868132,BRIGHT MLS,MDBA2032560,N,Y,39.3082467,-76.6109666
PAST SALE,May-6-2022,Townhouse,838 S Macon St,Baltimore,MD,21224,341500,3,2.5,Ward 26,1588,,2016,,215,72,Sold,,,https://www.redfin.com/MD/Baltimore/838-S-Macon-St-21224/home/108433941,BRIGHT MLS,MDBA2036152,N,Y,39.2833539,-76.5579432
PAST SALE,,Townhouse,4503 Maple Wood Dr,Baltimore,MD,21229,245000,3,3.0,,1408,915,2017,,174,,,,,https://www.redfin.com/MD/Baltimore/4503-Maple-Wood-Dr-21229/home/145407700,,,N,Y,39.2915157,-76.690459
PAST SALE,,Townhouse,4211 Skyview,Baltimore,MD,21211,360000,3,3.0,,1744,1177,2017,,206,,,,,https://www.redfin.com/MD/Baltimore/4211-Skyview-21211/home/109860701,,,N,Y,39.3395656,-76.6362466
PAST SALE,,Townhouse,2309 E Fairmount Ave,Baltimore,MD,21224,435000,,3.0,,2006,1133,2017,,217,,,,,https://www.redfin.com/MD/Baltimore/2309-E-Fairmount-Ave-21224/home/10758849,,,N,Y,39.2928349,-76.584158
PAST SALE,,Townhouse,4626 Dillon Pl,Baltimore,MD,21224,310000,,3.5,,2032,784,2015,,153,,,,,https://www.redfin.com/MD/Baltimore/4626-Dillon-Pl-21224/home/28546608,,,N,Y,39.2824842,-76.5564657
PAST SALE,February-12-2021,Townhouse,4515 Foster Ave,Baltimore,MD,21224,299999,3,3.0,Ward 26,1568,915,2013,,191,60,Sold,,,https://www.redfin.com/MD/Baltimore/4515-Foster-Ave-21224/home/59254388,BRIGHT MLS,MDBA522746,N,Y,39.2848272,-76.5578344
PAST SALE,December-31-2020,Townhouse,4626 Hudson St,Baltimore,MD,21224,358000,3,2.5,Ward 26,1800,,2015,,199,64,Sold,,,https://www.redfin.com/MD/Baltimore/4626-Hudson-St-21224/home/87570886,BRIGHT MLS,MDBA531344,N,Y,39.2832407,-76.5565598
PAST SALE,April-27-2022,Townhouse,25 N Port St,Baltimore,MD,21224,448500,3,3.5,Ward 6,1750,828,2020,,256,,Sold,,,https://www.redfin.com/MD/Baltimore/25-N-Port-St-21224/home/10759641,BRIGHT MLS,MDBA2035912,N,Y,39.2927018,-76.5824945
PAST SALE,March-15-2021,Townhouse,6318 Canter Way #7,Baltimore,MD,21212,600000,3,2.5,WOODBROOK,4200,1676,2010,,143,582,Sold,,,https://www.redfin.com/MD/Baltimore/6318-Canter-Way-21212/unit-7/home/40029262,BRIGHT MLS,MDBC501984,N,Y,39.380899,-76.626903
PAST SALE,,Townhouse,4603 Dillon St,Baltimore,MD,21224,355000,,3.5,,1743,653,2010,,204,,,,,https://www.redfin.com/MD/Baltimore/4603-Dillon-St-21224/home/11892632,,,N,Y,39.2817529,-76.5571605
PAST SALE,,Townhouse,4633 Dillon St,Baltimore,MD,21224,305000,,2.5,,1680,653,2011,,182,,,,,https://www.redfin.com/MD/Baltimore/4633-Dillon-St-21224/home/11892754,,,N,Y,39.2817861,-76.5562313
PAST SALE,March-11-2022,Townhouse,4638 Hudson St,Baltimore,MD,21224,380000,3,3.5,CANTON,2112,1306,2015,,180,73,Sold,,,https://www.redfin.com/MD/Baltimore/4638-Hudson-St-21224/home/108434000,BRIGHT MLS,MDBA2019098,N,Y,39.2835,-76.556427
PAST SALE,March-12-2021,Townhouse,4315 Laplata Ave,Baltimore,MD,21211,356520,3,2.5,ROLAND HEIGHTS,1763,1500,2020,,202,60,Sold,,,https://www.redfin.com/MD/Baltimore/4315-La-Plata-Ave-21211/home/171243875,BRIGHT MLS,MDBA535972,N,Y,39.339382,-76.64598
PAST SALE,April-2-2021,Townhouse,3511 Odonnell St,Baltimore,MD,21224,595000,3,4.0,Ward 26,2120,748,2017,,281,30,Sold,,,https://www.redfin.com/MD/Baltimore/3511-O-Donnell-St-21224/home/109860609,BRIGHT MLS,MDBA538486,N,Y,39.2802728,-76.5672684
PAST SALE,August-20-2021,Townhouse,3421 Brewers Green Way,Baltimore,MD,21224,720000,3,3.0,Ward 26,2601,871,2018,,277,,Sold,,,https://www.redfin.com/MD/Baltimore/3421-Brewers-Green-Way-21224/home/131161746,BRIGHT MLS,MDBA2006254,N,Y,39.2789529,-76.5678215
PAST SALE,May-6-2021,Townhouse,530 E 21st St,Baltimore,MD,21218,357950,3,2.5,Ward 9,2190,1260,2021,,163,,Sold,,,https://www.redfin.com/MD/Baltimore/530-E-21st-St-21218/home/10808859,BRIGHT MLS,MDBA537652,N,Y,39.313767,-76.608586
PAST SALE,July-29-2020,Townhouse,1805 E Chase St,Baltimore,MD,21205,411225,3,3.5,Baltimore,2244,1120,2020,,183,50,Sold,,,https://www.redfin.com/MD/Baltimore/1805-E-Chase-St-21213/home/9944475,BRIGHT MLS,MDBA498358,N,Y,39.3031916,-76.5922342
PAST SALE,July-27-2020,Townhouse,1807 E Chase St,Baltimore,MD,21205,349990,3,3.0,Baltimore,1724,1120,2020,,203,50,Sold,,,https://www.redfin.com/MD/Baltimore/1807-E-Chase-St-21213/home/9944479,BRIGHT MLS,MDBA508534,N,Y,39.3032459,-76.5922064
PAST SALE,,Townhouse,1710 E Eager St,Baltimore,MD,21205,355000,,3.5,,2026,14549,2016,,175,,,,,https://www.redfin.com/MD/Baltimore/1710-E-Eager-St-21205/home/10768641,,,N,Y,39.3020971,-76.5933011
PAST SALE,,Townhouse,1308 Jackson St,Baltimore,MD,21230,698750,,4.0,,2434,1394,2017,,287,,,,,https://www.redfin.com/MD/Baltimore/1308-Jackson-St-21230/home/11892441,,,N,Y,39.2751792,-76.6056303
PAST SALE,December-4-2020,Townhouse,5411 Bristol Green Way,Baltimore,MD,21229,379000,3,3.0,BRISTOL GREEN,2189,2611,2016,,173,55,Sold,,,https://www.redfin.com/MD/Baltimore/5411-Bristol-Grn-Way-21229/home/52925978,BRIGHT MLS,MDBC506402,N,Y,39.2885232,-76.7188709
PAST SALE,,Townhouse,1203 Andre St,Baltimore,MD,21230,560000,,3.0,,2204,915,2015,,254,,,,,https://www.redfin.com/MD/Baltimore/1203-Andre-St-21230/home/64338160,,,N,Y,39.2710223,-76.589162
PAST SALE,,Townhouse,1722 Lantern Mews,Baltimore,MD,21205,319900,,3.0,,1610,1394,2016,,199,,,,,https://www.redfin.com/MD/Baltimore/1722-Lantern-Mews-21205/home/10768773,,,N,Y,39.3029405,-76.5930524
PAST SALE,,Condo/Co-op,300 International Dr #2102,Baltimore,MD,21202,2995000,,,,,,,,,,,,,https://www.redfin.com/MD/Baltimore/300-International-Dr-21202/unit-2102/home/145321603,,,N,Y,39.2825476,-76.6021343
